[BEGIN] 2018-05-03 ¿ÀÈÄ 12:00:01
$GNGSA,A,3,23,26,31,16,21,27,29,14,,,,,1.40,0.72,1.19*1D
$GNGSA,A,3,78,87,79,77,81,88,,,,,,,1.40,0.72,1.19*12
$GPGSV,4,1,14,03,06,257,20,04,,,37,08,00,208,,09,05,324,22*45
$GPGSV,4,2,14,14,31,171,30,16,61,287,40,21,17,100,27,22,02,236,*74
$GPGSV,4,3,14,23,36,303,41,26,68,008,43,27,34,195,32,29,18,040,26*73
$GPGSV,4,4,14,31,51,096,30,32,05,162,*77
$GLGSV,3,1,09,67,03,199,,68,29,245,,69,28,233,,77,29,073,27*66
$GLGSV,3,2,09,78,54,008,38,79,33,312,43,81,21,166,38,87,34,046,29*68
$GLGSV,3,3,09,88,50,112,20*59
$GNGLL,3621.71548,N,12720.93524,E,025959.00,A,A*73
$GNRMC,030000.00,A,3621.71548,N,12720.93524,E,0.022,,030518,,,A*64
$GNVTG,,T,,M,0.022,N,0.041,K,A*38
$GNGGA,030000.00,3621.71548,N,12720.93524,E,1,12,0.72,67.3,M,20.0,M,,*71
$GNGSA,A,3,23,26,31,16,21,27,29,14,,,,,1.40,0.72,1.19*1D
$GNGSA,A,3,78,87,79,77,81,88,,,,,,,1.40,0.72,1.19*12
$GPGSV,4,1,14,03,06,257,18,04,,,37,08,00,208,,09,05,324,22*4E
$GPGSV,4,2,14,14,31,171,30,16,61,287,40,21,17,100,27,22,02,236,*74
$GPGSV,4,3,14,23,36,303,41,26,68,008,43,27,34,195,32,29,18,040,26*73
$GPGSV,4,4,14,31,51,096,31,32,05,162,*76
$GLGSV,3,1,09,67,03,199,,68,29,245,,69,28,233,,77,29,073,27*66
$GLGSV,3,2,09,78,54,008,38,79,33,312,43,81,21,166,38,87,34,046,29*68
$GLGSV,3,3,09,88,50,112,21*58
$GNGLL,3621.71548,N,12720.93524,E,030000.00,A,A*72
$GNRMC,030001.00,A,3621.71549,N,12720.93524,E,0.048,,030518,,,A*68
$GNVTG,,T,,M,0.048,N,0.089,K,A*30
$GNGGA,030001.00,3621.71549,N,12720.93524,E,1,12,0.72,67.4,M,20.0,M,,*76
$GNGSA,A,3,23,26,31,16,21,27,29,14,,,,,1.40,0.72,1.19*1D
$GNGSA,A,3,78,87,79,77,81,88,,,,,,,1.40,0.72,1.19*12
$GPGSV,4,1,14,03,06,257,17,04,,,37,08,00,208,,09,05,324,22*41
$GPGSV,4,2,14,14,31,171,29,16,61,287,40,21,17,100,26,22,02,236,*7D
$GPGSV,4,3,14,23,36,303,41,26,68,008,43,27,34,195,32,29,18,040,26*73
$GPGSV,4,4,14,31,51,096,31,32,05,162,*76
$GLGSV,3,1,09,67,03,199,,68,29,245,,69,28,233,,77,29,073,27*66
$GLGSV,3,2,09,78,54,008,38,79,33,312,43,81,21,166,38,87,34,046,29*68
$GLGSV,3,3,09,88,50,112,21*58
$GNGLL,3621.71549,N,12720.93524,E,030001.00,A,A*72
$GNRMC,030002.00,A,3621.71549,N,12720.93522,E,0.022,,030518,,,A*61
$GNVTG,,T,,M,0.022,N,0.041,K,A*38
$GNGGA,030002.00,3621.71549,N,12720.93522,E,1,12,0.72,67.5,M,20.0,M,,*72
$GNGSA,A,3,23,26,31,16,21,27,29,14,,,,,1.40,0.72,1.19*1D
$GNGSA,A,3,78,87,79,77,81,88,,,,,,,1.40,0.72,1.19*12
$GPGSV,4,1,14,03,06,257,16,04,,,37,08,00,208,,09,05,324,22*40
$GPGSV,4,2,14,14,31,171,29,16,61,287,40,21,17,100,26,22,02,236,*7D
$GPGSV,4,3,14,23,36,303,41,26,68,008,43,27,34,195,32,29,18,040,26*73
$GPGSV,4,4,14,31,51,096,31,32,05,162,*76
$GLGSV,3,1,09,67,03,199,,68,29,245,,69,28,233,,77,29,073,27*66
$GLGSV,3,2,09,78,54,008,38,79,33,312,43,81,21,166,38,87,34,046,29*68
$GLGSV,3,3,09,88,50,112,20*59
$GNGLL,3621.71549,N,12720.93522,E,030002.00,A,A*77
$GNRMC,030003.00,A,3621.71548,N,12720.93519,E,0.006,,030518,,,A*6F
$GNVTG,,T,,M,0.006,N,0.012,K,A*38
$GNGGA,030003.00,3621.71548,N,12720.93519,E,1,12,0.72,67.6,M,20.0,M,,*79
$GNGSA,A,3,23,26,31,16,21,27,29,14,,,,,1.40,0.72,1.20*17
$GNGSA,A,3,78,87,79,77,81,88,,,,,,,1.40,0.72,1.20*18
$GPGSV,4,1,14,03,06,257,16,04,,,37,08,00,208,,09,05,324,22*40
$GPGSV,4,2,14,14,31,171,29,16,61,287,40,21,17,100,27,22,02,236,*7C
$GPGSV,4,3,14,23,36,303,41,26,68,008,43,27,34,195,32,29,18,040,26*73
$GPGSV,4,4,14,31,51,096,31,32,05,162,*76
$GLGSV,3,1,09,67,03,199,,68,29,245,,69,28,233,,77,29,073,27*66
$GLGSV,3,2,09,78,54,008,38,79,33,312,43,81,21,166,38,87,34,046,31*61
$GLGSV,3,3,09,88,50,112,20*59
$GNGLL,3621.71548,N,12720.93519,E,030003.00,A,A*7F
$GNRMC,030004.00,A,3621.71548,N,12720.93515,E,0.008,,030518,,,A*6A
$GNVTG,,T,,M,0.008,N,0.014,K,A*30
$GNGGA,030004.00,3621.71548,N,12720.93515,E,1,12,0.72,67.7,M,20.0,M,,*73
$GNGSA,A,3,23,26,31,16,21,27,29,14,,,,,1.40,0.72,1.20*17
$GNGSA,A,3,78,87,79,77,81,88,,,,,,,1.40,0.72,1.20*18
$GPGSV,4,1,14,03,06,257,17,04,,,36,08,00,208,,09,05,324,21*43
$GPGSV,4,2,14,14,30,171,29,16,61,287,39,21,17,100,27,22,02,236,*73
$GPGSV,4,3,14,23,36,303,41,26,68,008,43,27,34,195,32,29,18,040,26*73
$GPGSV,4,4,14,31,51,096,31,32,05,162,*76
$GLGSV,3,1,09,67,03,199,,68,29,245,,69,28,233,,77,29,073,27*66
$GLGSV,3,2,09,78,54,008,38,79,33,312,43,81,21,166,38,87,34,046,31*61
$GLGSV,3,3,09,88,50,112,20*59
$GNGLL,3621.71548,N,12720.93515,E,030004.00,A,A*74
$GNRMC,030005.00,A,3621.71544,N,12720.93509,E,0.029,,030518,,,A*69
$GNVTG,,T,,M,0.029,N,0.055,K,A*36
$GNGGA,030005.00,3621.71544,N,12720.93509,E,1,12,0.72,67.8,M,20.0,M,,*7C
$GNGSA,A,3,23,26,31,16,21,27,29,14,,,,,1.40,0.72,1.20*17
$GNGSA,A,3,78,87,79,77,81,88,,,,,,,1.40,0.72,1.20*18
$GPGSV,4,1,14,03,06,257,18,04,,,36,08,00,208,,09,05,324,21*4C
$GPGSV,4,2,14,14,30,171,29,16,61,287,39,21,17,100,27,22,02,236,*73
$GPGSV,4,3,14,23,36,303,41,26,68,008,42,27,34,195,32,29,18,040,26*72
$GPGSV,4,4,14,31,51,096,32,32,05,162,*75
$GLGSV,3,1,09,67,03,199,,68,29,245,,69,28,233,,77,29,073,28*69
$GLGSV,3,2,09,78,54,008,37,79,33,312,43,81,21,166,38,87,34,046,30*6F
$GLGSV,3,3,09,88,50,112,19*53
$GNGLL,3621.71544,N,12720.93509,E,030005.00,A,A*74
$GNRMC,030006.00,A,3621.71542,N,12720.93503,E,0.004,,030518,,,A*69
$GNVTG,,T,,M,0.004,N,0.008,K,A*31
$GNGGA,030006.00,3621.71542,N,12720.93503,E,1,12,0.72,68.0,M,20.0,M,,*74
$GNGSA,A,3,23,26,31,16,21,27,29,14,,,,,1.40,0.72,1.20*17
$GNGSA,A,3,78,87,79,77,81,88,,,,,,,1.40,0.72,1.20*18
$GPGSV,4,1,14,03,06,257,17,04,,,36,08,00,208,,09,05,324,22*40
$GPGSV,4,2,14,14,30,171,29,16,62,288,39,21,17,100,27,22,02,236,*7F
$GPGSV,4,3,14,23,36,303,41,26,68,008,43,27,34,195,32,29,18,040,26*73
$GPGSV,4,4,14,31,51,096,31,32,05,162,*76
$GLGSV,3,1,09,67,03,199,,68,29,245,,69,28,233,,77,29,073,28*69
$GLGSV,3,2,09,78,54,008,38,79,33,312,43,81,21,166,38,87,34,046,30*60
$GLGSV,3,3,09,88,50,112,19*53
$GNGLL,3621.71542,N,12720.93503,E,030006.00,A,A*7B
$GNRMC,030007.00,A,3621.71539,N,12720.93498,E,0.014,,030518,,,A*66
$GNVTG,,T,,M,0.014,N,0.026,K,A*3C
$GNGGA,030007.00,3621.71539,N,12720.93498,E,1,12,0.74,68.2,M,20.0,M,,*7E
$GNGSA,A,3,23,26,31,16,21,27,29,14,,,,,1.44,0.74,1.23*16
$GNGSA,A,3,78,87,79,77,81,88,,,,,,,1.44,0.74,1.23*19
$GPGSV,4,1,14,03,06,257,16,04,,,37,08,00,208,,09,05,324,23*41
$GPGSV,4,2,14,14,30,171,29,16,62,288,39,21,17,100,27,22,02,236,*7F
$GPGSV,4,3,14,23,36,303,41,26,68,008,43,27,34,195,33,29,18,040,26*72
$GPGSV,4,4,14,31,51,096,32,32,05,162,*75
$GLGSV,3,1,09,67,03,199,,68,29,245,,69,28,233,,77,29,073,28*69
$GLGSV,3,2,09,78,54,008,38,79,33,312,43,81,21,166,38,87,34,046,30*60
$GLGSV,3,3,09,88,50,112,18*52
$GNGLL,3621.71539,N,12720.93498,E,030007.00,A,A*75
$GNRMC,030008.00,A,3621.71536,N,12720.93492,E,0.039,,030518,,,A*63
$GNVTG,,T,,M,0.039,N,0.073,K,A*33
$GNGGA,030008.00,3621.71536,N,12720.93492,E,1,12,0.74,68.3,M,20.0,M,,*75
$GNGSA,A,3,23,26,31,16,21,27,29,14,,,,,1.44,0.74,1.23*16
$GNGSA,A,3,78,87,79,77,81,88,,,,,,,1.44,0.74,1.23*19
$GPGSV,4,1,14,03,06,257,16,04,,,36,08,00,208,,09,05,324,23*40
$GPGSV,4,2,14,14,30,171,29,16,62,288,39,21,17,100,27,22,02,236,*7F
$GPGSV,4,3,14,23,36,303,41,26,68,008,43,27,34,195,33,29,18,040,26*72
$GPGSV,4,4,14,31,51,096,32,32,05,162,*75
$GLGSV,3,1,09,67,03,199,,68,29,245,,69,28,233,,77,29,073,29*68
$GLGSV,3,2,09,78,54,008,38,79,33,312,43,81,21,166,38,87,34,046,31*61
$GLGSV,3,3,09,88,50,112,18*52
$GNGLL,3621.71536,N,12720.93492,E,030008.00,A,A*7F
$GNRMC,030009.00,A,3621.71534,N,12720.93488,E,0.004,,030518,,,A*65
$GNVTG,,T,,M,0.004,N,0.007,K,A*3E
$GNGGA,030009.00,3621.71534,N,12720.93488,E,1,12,0.74,68.4,M,20.0,M,,*7A
$GNGSA,A,3,23,26,31,16,21,27,29,14,,,,,1.44,0.74,1.23*16
$GNGSA,A,3,78,87,79,77,81,88,,,,,,,1.44,0.74,1.23*19
$GPGSV,4,1,14,03,06,257,16,04,,,36,08,00,208,,09,05,324,23*40
$GPGSV,4,2,14,14,30,171,29,16,62,288,39,21,17,100,27,22,02,236,*7F
$GPGSV,4,3,14,23,36,303,41,26,68,008,43,27,34,195,33,29,18,040,26*72
$GPGSV,4,4,14,31,51,096,32,32,05,162,*75
$GLGSV,3,1,09,67,03,199,,68,29,245,,69,28,233,,77,28,073,29*69
$GLGSV,3,2,09,78,54,009,38,79,33,312,43,81,21,166,38,87,33,046,31*67
$GLGSV,3,3,09,88,50,112,18*52
$GNGLL,3621.71534,N,12720.93488,E,030009.00,A,A*77
$GNRMC,030010.00,A,3621.71532,N,12720.93482,E,0.024,,030518,,,A*63
$GNVTG,,T,,M,0.024,N,0.045,K,A*3A
$GNGGA,030010.00,3621.71532,N,12720.93482,E,1,12,0.74,68.5,M,20.0,M,,*7F
$GNGSA,A,3,23,26,31,16,21,27,29,14,,,,,1.44,0.74,1.23*16
$GNGSA,A,3,78,87,79,77,81,88,,,,,,,1.44,0.74,1.23*19
$GPGSV,4,1,14,03,06,257,16,04,,,36,08,00,208,,09,05,324,23*40
$GPGSV,4,2,14,14,30,171,29,16,62,288,39,21,17,100,26,22,02,236,*7E
$GPGSV,4,3,14,23,36,303,41,26,68,008,43,27,34,195,33,29,18,040,26*72
$GPGSV,4,4,14,31,51,096,32,32,05,162,*75
$GLGSV,3,1,09,67,03,199,,68,29,245,,69,28,233,,77,28,073,30*61
$GLGSV,3,2,09,78,54,009,38,79,33,312,43,81,21,166,38,87,33,046,31*67
$GLGSV,3,3,09,88,50,112,19*53
$GNGLL,3621.71532,N,12720.93482,E,030010.00,A,A*73
$GNRMC,030011.00,A,3621.71529,N,12720.93477,E,0.012,,030518,,,A*67
$GNVTG,,T,,M,0.012,N,0.022,K,A*3E
$GNGGA,030011.00,3621.71529,N,12720.93477,E,1,12,0.74,68.7,M,20.0,M,,*7C
$GNGSA,A,3,23,26,31,16,21,27,29,14,,,,,1.44,0.74,1.23*16
$GNGSA,A,3,78,87,79,77,81,88,,,,,,,1.44,0.74,1.23*19
$GPGSV,4,1,14,03,06,257,16,04,,,36,08,00,208,,09,05,324,22*41
$GPGSV,4,2,14,14,30,171,29,16,62,288,39,21,18,100,26,22,02,236,*71
$GPGSV,4,3,14,23,36,303,41,26,68,008,43,27,34,195,33,29,18,040,26*72
$GPGSV,4,4,14,31,51,096,31,32,05,162,*76
$GLGSV,3,1,09,67,03,199,,68,29,245,,69,28,233,,77,28,073,30*61
$GLGSV,3,2,09,78,54,009,38,79,33,312,43,81,21,166,38,87,33,046,31*67
$GLGSV,3,3,09,88,50,112,19*53
$GNGLL,3621.71529,N,12720.93477,E,030011.00,A,A*72
$GNRMC,030012.00,A,3621.71526,N,12720.93470,E,0.012,,030518,,,A*6C
$GNVTG,,T,,M,0.012,N,0.021,K,A*3D
$GNGGA,030012.00,3621.71526,N,12720.93470,E,1,12,0.74,68.8,M,20.0,M,,*78
$GNGSA,A,3,23,26,31,16,21,27,29,14,,,,,1.44,0.74,1.23*16
$GNGSA,A,3,78,87,79,77,81,88,,,,,,,1.44,0.74,1.23*19
$GPGSV,4,1,14,03,06,257,15,04,,,36,08,00,208,,09,05,324,24*44
$GPGSV,4,2,14,14,30,171,29,16,62,288,39,21,18,100,26,22,01,236,*72
$GPGSV,4,3,14,23,36,303,41,26,68,008,43,27,34,195,33,29,18,040,26*72
$GPGSV,4,4,14,31,51,096,32,32,05,162,*75
$GLGSV,3,1,09,67,03,199,,68,29,245,,69,28,233,,77,28,073,30*61
$GLGSV,3,2,09,78,54,009,38,79,33,312,42,81,21,166,38,87,33,046,31*66
$GLGSV,3,3,09,88,50,112,19*53
$GNGLL,3621.71526,N,12720.93470,E,030012.00,A,A*79
$GNRMC,030013.00,A,3621.71522,N,12720.93461,E,0.010,,030518,,,A*6B
$GNVTG,,T,,M,0.010,N,0.018,K,A*35
$GNGGA,030013.00,3621.71522,N,12720.93461,E,1,12,0.74,68.9,M,20.0,M,,*7C
$GNGSA,A,3,23,26,31,16,21,27,29,14,,,,,1.44,0.74,1.23*16
$GNGSA,A,3,78,87,79,77,81,88,,,,,,,1.44,0.74,1.23*19
$GPGSV,4,1,14,03,06,257,15,04,,,37,08,00,208,,09,05,324,23*42
$GPGSV,4,2,14,14,30,171,29,16,62,288,39,21,18,100,26,22,01,236,*72
$GPGSV,4,3,14,23,36,302,41,26,68,008,43,27,34,195,33,29,18,040,26*73
$GPGSV,4,4,14,31,51,096,32,32,05,162,*75
$GLGSV,3,1,09,67,03,199,,68,29,245,,69,28,233,,77,28,073,30*61
$GLGSV,3,2,09,78,54,009,37,79,33,312,42,81,21,166,39,87,33,046,31*68
$GLGSV,3,3,09,88,50,112,20*59
$GNGLL,3621.71522,N,12720.93461,E,030013.00,A,A*7C
$GNRMC,030014.00,A,3621.71518,N,12720.93452,E,0.010,,030518,,,A*65
$GNVTG,,T,,M,0.010,N,0.018,K,A*35
$GNGGA,030014.00,3621.71518,N,12720.93452,E,1,12,0.74,69.1,M,20.0,M,,*7B
$GNGSA,A,3,23,26,31,16,21,27,29,14,,,,,1.44,0.74,1.23*16
$GNGSA,A,3,78,87,79,77,81,88,,,,,,,1.44,0.74,1.23*19
$GPGSV,4,1,14,03,06,257,11,04,,,37,08,00,208,,09,05,324,22*47
$GPGSV,4,2,14,14,30,171,29,16,62,288,39,21,18,100,26,22,01,236,*72
$GPGSV,4,3,14,23,36,302,41,26,68,008,43,27,34,195,33,29,18,040,26*73
$GPGSV,4,4,14,31,51,096,32,32,05,162,*75
$GLGSV,3,1,09,67,03,199,,68,29,245,,69,28,233,,77,28,073,30*61
$GLGSV,3,2,09,78,54,009,36,79,33,312,41,81,21,166,37,87,33,046,31*64
$GLGSV,3,3,09,88,50,112,19*53
$GNGLL,3621.71518,N,12720.93452,E,030014.00,A,A*72
$GNRMC,030015.00,A,3621.71515,N,12720.93445,E,0.022,,030518,,,A*6E
$GNVTG,,T,,M,0.022,N,0.041,K,A*38
$GNGGA,030015.00,3621.71515,N,12720.93445,E,1,12,0.74,69.2,M,20.0,M,,*72
$GNGSA,A,3,23,26,31,16,21,27,29,14,,,,,1.44,0.74,1.23*16
$GNGSA,A,3,78,87,79,77,81,88,,,,,,,1.44,0.74,1.23*19
$GPGSV,4,1,14,03,06,257,,04,,,37,08,00,208,,09,05,324,22*47
$GPGSV,4,2,14,14,30,171,29,16,62,288,39,21,18,100,26,22,01,236,*72
$GPGSV,4,3,14,23,36,302,41,26,68,008,43,27,34,195,33,29,18,040,26*73
$GPGSV,4,4,14,31,51,096,32,32,05,162,*75
$GLGSV,3,1,09,67,03,199,,68,29,245,,69,28,233,,77,28,073,30*61
$GLGSV,3,2,09,78,54,009,36,79,33,312,43,81,21,166,39,87,33,046,31*68
$GLGSV,3,3,09,88,50,112,19*53
$GNGLL,3621.71515,N,12720.93445,E,030015.00,A,A*78
$GNRMC,030016.00,A,3621.71512,N,12720.93437,E,0.003,,030518,,,A*6C
$GNVTG,,T,,M,0.003,N,0.006,K,A*38
$GNGGA,030016.00,3621.71512,N,12720.93437,E,1,12,0.74,69.3,M,20.0,M,,*72
$GNGSA,A,3,23,26,31,16,21,27,29,14,,,,,1.44,0.74,1.23*16
$GNGSA,A,3,78,87,79,77,81,88,,,,,,,1.44,0.74,1.23*19
$GPGSV,4,1,14,03,06,257,,04,,,37,08,00,208,,09,05,324,22*47
$GPGSV,4,2,14,14,30,171,29,16,62,288,39,21,18,100,26,22,01,236,*72
$GPGSV,4,3,14,23,36,302,41,26,67,010,43,27,34,195,33,29,18,040,26*75
$GPGSV,4,4,14,31,51,096,32,32,05,162,*75
$GLGSV,3,1,09,67,03,199,,68,29,245,,69,28,233,,77,28,073,31*60
$GLGSV,3,2,09,78,54,009,37,79,33,312,43,81,21,166,39,87,33,046,32*6A
$GLGSV,3,3,09,88,50,112,19*53
$GNGLL,3621.71512,N,12720.93437,E,030016.00,A,A*79
$GNRMC,030017.00,A,3621.71509,N,12720.93428,E,0.014,,030518,,,A*6F
$GNVTG,,T,,M,0.014,N,0.025,K,A*3F
$GNGGA,030017.00,3621.71509,N,12720.93428,E,1,12,0.74,69.3,M,20.0,M,,*77
$GNGSA,A,3,23,26,31,16,21,27,29,14,,,,,1.44,0.74,1.23*16
$GNGSA,A,3,78,87,79,77,81,88,,,,,,,1.44,0.74,1.23*19
$GPGSV,4,1,14,03,06,257,,04,,,37,08,00,208,,09,05,324,21*44
$GPGSV,4,2,14,14,30,171,29,16,62,288,39,21,18,100,26,22,01,236,*72
$GPGSV,4,3,14,23,36,302,41,26,67,010,42,27,34,195,33,29,18,040,26*74
$GPGSV,4,4,14,31,51,096,32,32,05,162,*75
$GLGSV,3,1,09,67,03,199,,68,29,245,,69,28,233,,77,28,073,32*63
$GLGSV,3,2,09,78,54,009,37,79,33,312,43,81,21,166,39,87,33,046,33*6B
$GLGSV,3,3,09,88,50,112,21*58
$GNGLL,3621.71509,N,12720.93428,E,030017.00,A,A*7C
$GNRMC,030018.00,A,3621.71507,N,12720.93423,E,0.014,,030518,,,A*65
$GNVTG,,T,,M,0.014,N,0.025,K,A*3F
$GNGGA,030018.00,3621.71507,N,12720.93423,E,1,12,0.72,69.3,M,20.0,M,,*7B
$GNGSA,A,3,23,26,31,16,21,27,29,14,,,,,1.40,0.72,1.20*17
$GNGSA,A,3,78,87,79,77,81,88,,,,,,,1.40,0.72,1.20*18
$GPGSV,4,1,14,03,06,257,,04,,,36,08,00,208,,09,05,324,21*45
$GPGSV,4,2,14,14,30,171,28,16,62,288,38,21,18,100,25,22,01,236,*71
$GPGSV,4,3,14,23,36,302,39,26,67,010,42,27,34,195,33,29,18,040,26*7B
$GPGSV,4,4,14,31,51,096,31,32,05,162,*76
$GLGSV,3,1,09,67,03,199,,68,29,245,,69,28,233,,77,28,073,32*63
$GLGSV,3,2,09,78,54,009,37,79,33,312,43,81,21,166,39,87,33,046,33*6B
$GLGSV,3,3,09,88,50,112,21*58
$GNGLL,3621.71507,N,12720.93423,E,030018.00,A,A*76
$GNRMC,030019.00,A,3621.71505,N,12720.93418,E,0.020,,030518,,,A*69
$GNVTG,,T,,M,0.020,N,0.037,K,A*3B
$GNGGA,030019.00,3621.71505,N,12720.93418,E,1,12,0.72,69.4,M,20.0,M,,*77
$GNGSA,A,3,23,26,31,16,21,27,29,14,,,,,1.40,0.72,1.20*17
$GNGSA,A,3,78,87,79,77,81,88,,,,,,,1.40,0.72,1.20*18
$GPGSV,4,1,14,03,06,257,07,04,,,36,08,00,208,,09,05,324,21*42
$GPGSV,4,2,14,14,30,171,29,16,62,288,38,21,18,100,25,22,01,236,*70
$GPGSV,4,3,14,23,36,302,40,26,67,010,43,27,34,195,33,29,17,040,26*7B
$GPGSV,4,4,14,31,51,096,32,32,05,162,*75
$GLGSV,3,1,09,67,03,199,,68,29,245,,69,28,233,,77,28,073,31*60
$GLGSV,3,2,09,78,54,009,37,79,33,312,43,81,21,166,39,87,33,046,33*6B
$GLGSV,3,3,09,88,50,112,21*58
$GNGLL,3621.71505,N,12720.93418,E,030019.00,A,A*7D
$GNRMC,030020.00,A,3621.71503,N,12720.93413,E,0.008,,030518,,,A*64
$GNVTG,,T,,M,0.008,N,0.014,K,A*30
$GNGGA,030020.00,3621.71503,N,12720.93413,E,1,12,0.72,69.4,M,20.0,M,,*70
$GNGSA,A,3,23,26,31,16,21,27,29,14,,,,,1.40,0.72,1.20*17
$GNGSA,A,3,78,87,79,77,81,88,,,,,,,1.40,0.72,1.20*18
$GPGSV,4,1,14,03,06,257,08,04,,,36,08,00,208,,09,05,324,21*4D
$GPGSV,4,2,14,14,30,171,29,16,62,288,38,21,18,100,25,22,01,236,*70
$GPGSV,4,3,14,23,36,302,40,26,67,010,43,27,34,195,33,29,17,040,26*7B
$GPGSV,4,4,14,31,51,096,32,32,05,162,*75
$GLGSV,3,1,09,67,03,199,,68,29,245,,69,28,233,,77,28,073,32*63
$GLGSV,3,2,09,78,54,009,37,79,33,312,43,81,21,166,39,87,33,046,33*6B
$GLGSV,3,3,09,88,50,112,21*58
$GNGLL,3621.71503,N,12720.93413,E,030020.00,A,A*7A
$GNRMC,030021.00,A,3621.71501,N,12720.93408,E,0.021,,030518,,,A*66
$GNVTG,,T,,M,0.021,N,0.038,K,A*35
$GNGGA,030021.00,3621.71501,N,12720.93408,E,1,12,0.72,69.4,M,20.0,M,,*79
$GNGSA,A,3,23,26,31,16,21,27,29,14,,,,,1.40,0.72,1.20*17
$GNGSA,A,3,78,87,79,77,81,88,,,,,,,1.40,0.72,1.20*18
$GPGSV,4,1,14,03,06,257,11,04,,,37,08,00,208,,09,05,324,20*45
$GPGSV,4,2,14,14,30,171,29,16,62,288,38,21,18,100,25,22,01,236,*70
$GPGSV,4,3,14,23,36,302,40,26,67,010,43,27,34,195,33,29,17,040,26*7B
$GPGSV,4,4,14,31,51,096,32,32,05,162,*75
$GLGSV,3,1,09,67,03,199,,68,29,245,,69,28,233,,77,28,073,31*60
$GLGSV,3,2,09,78,54,009,37,79,33,312,43,81,21,166,39,87,33,046,33*6B
$GLGSV,3,3,09,88,50,112,21*58
$GNGLL,3621.71501,N,12720.93408,E,030021.00,A,A*73
$GNRMC,030022.00,A,3621.71498,N,12720.93399,E,0.044,,030518,,,A*68
$GNVTG,,T,,M,0.044,N,0.082,K,A*37
$GNGGA,030022.00,3621.71498,N,12720.93399,E,1,12,0.72,69.5,M,20.0,M,,*75
$GNGSA,A,3,23,26,31,16,21,27,29,14,,,,,1.40,0.72,1.20*17
$GNGSA,A,3,78,87,79,77,81,88,,,,,,,1.40,0.72,1.20*18
$GPGSV,4,1,14,03,06,257,13,04,,,37,08,00,208,,09,05,324,20*47
$GPGSV,4,2,14,14,30,171,29,16,62,288,38,21,18,100,25,22,01,236,*70
$GPGSV,4,3,14,23,36,302,40,26,67,010,43,27,34,195,33,29,17,040,26*7B
$GPGSV,4,4,14,31,51,096,32,32,04,162,*74
$GLGSV,3,1,09,67,03,199,,68,29,245,,69,28,233,,77,28,073,31*60
$GLGSV,3,2,09,78,54,009,37,79,33,312,43,81,21,166,39,87,33,046,33*6B
$GLGSV,3,3,09,88,50,112,22*5B
$GNGLL,3621.71498,N,12720.93399,E,030022.00,A,A*7E
$GNRMC,030023.00,A,3621.71496,N,12720.93391,E,0.026,,030518,,,A*6B
$GNVTG,,T,,M,0.026,N,0.049,K,A*34
$GNGGA,030023.00,3621.71496,N,12720.93391,E,1,12,0.72,69.5,M,20.0,M,,*72
$GNGSA,A,3,23,26,31,16,21,27,29,14,,,,,1.40,0.72,1.20*17
$GNGSA,A,3,78,87,79,77,81,88,,,,,,,1.40,0.72,1.20*18
$GPGSV,4,1,14,03,06,257,15,04,,,36,08,00,208,,09,05,324,19*4A
$GPGSV,4,2,14,14,30,171,29,16,62,288,38,21,18,100,25,22,01,236,*70
$GPGSV,4,3,14,23,36,302,40,26,67,010,43,27,34,195,33,29,17,040,25*78
$GPGSV,4,4,14,31,51,096,32,32,04,162,*74
$GLGSV,3,1,09,67,03,199,,68,29,245,,69,28,233,,77,28,073,30*61
$GLGSV,3,2,09,78,54,009,37,79,33,312,43,81,21,166,39,87,33,046,33*6B
$GLGSV,3,3,09,88,50,112,22*5B
$GNGLL,3621.71496,N,12720.93391,E,030023.00,A,A*79
$GNRMC,030024.00,A,3621.71493,N,12720.93385,E,0.050,,030518,,,A*6D
$GNVTG,,T,,M,0.050,N,0.093,K,A*32
$GNGGA,030024.00,3621.71493,N,12720.93385,E,1,12,0.72,69.6,M,20.0,M,,*76
$GNGSA,A,3,23,26,31,16,21,27,29,14,,,,,1.40,0.72,1.20*17
$GNGSA,A,3,78,87,79,77,81,88,,,,,,,1.40,0.72,1.20*18
$GPGSV,4,1,14,03,06,257,16,04,,,37,08,00,208,,09,05,324,19*48
$GPGSV,4,2,14,14,30,171,28,16,62,288,38,21,18,100,24,22,01,236,*70
$GPGSV,4,3,14,23,36,302,40,26,67,010,43,27,34,195,33,29,17,040,25*78
$GPGSV,4,4,14,31,51,096,32,32,04,162,*74
$GLGSV,3,1,09,67,03,199,,68,29,245,,69,28,233,,77,28,073,30*61
$GLGSV,3,2,09,78,54,009,38,79,33,312,43,81,21,166,39,87,33,046,34*63
$GLGSV,3,3,09,88,50,112,22*5B
$GNGLL,3621.71493,N,12720.93385,E,030024.00,A,A*7E
$GNRMC,030025.00,A,3621.71491,N,12720.93378,E,0.037,,030518,,,A*6D
$GNVTG,,T,,M,0.037,N,0.069,K,A*36
$GNGGA,030025.00,3621.71491,N,12720.93378,E,1,12,0.72,69.6,M,20.0,M,,*77
$GNGSA,A,3,23,26,31,16,21,27,29,14,,,,,1.40,0.72,1.20*17
$GNGSA,A,3,78,87,79,77,81,88,,,,,,,1.40,0.72,1.20*18
$GPGSV,4,1,14,03,06,257,16,04,,,37,08,00,208,,09,05,324,19*48
$GPGSV,4,2,14,14,30,171,28,16,62,288,38,21,18,100,24,22,01,236,*70
$GPGSV,4,3,14,23,36,302,40,26,67,010,43,27,34,195,33,29,17,040,25*78
$GPGSV,4,4,14,31,51,096,32,32,04,162,*74
$GLGSV,3,1,09,67,03,199,,68,29,245,,69,28,233,,77,28,073,30*61
$GLGSV,3,2,09,78,54,009,38,79,33,312,43,81,21,166,39,87,33,046,33*64
$GLGSV,3,3,09,88,50,112,22*5B
$GNGLL,3621.71491,N,12720.93378,E,030025.00,A,A*7F
$GNRMC,030026.00,A,3621.71490,N,12720.93373,E,0.021,,030518,,,A*63
$GNVTG,,T,,M,0.021,N,0.039,K,A*34
$GNGGA,030026.00,3621.71490,N,12720.93373,E,1,12,0.72,69.6,M,20.0,M,,*7E
$GNGSA,A,3,23,26,31,16,21,27,29,14,,,,,1.40,0.72,1.20*17
$GNGSA,A,3,78,87,79,77,81,88,,,,,,,1.40,0.72,1.20*18
$GPGSV,4,1,14,03,06,257,15,04,,,36,08,00,208,,09,05,324,20*40
$GPGSV,4,2,14,14,30,171,29,16,62,288,38,21,18,100,24,22,01,236,*71
$GPGSV,4,3,14,23,36,302,40,26,67,010,43,27,34,195,33,29,17,040,25*78
$GPGSV,4,4,14,31,51,096,32,32,04,162,*74
$GLGSV,3,1,09,67,03,199,,68,29,245,,69,28,233,,77,28,073,29*69
$GLGSV,3,2,09,78,54,009,38,79,33,312,43,81,21,166,39,87,33,046,33*64
$GLGSV,3,3,09,88,50,112,22*5B
$GNGLL,3621.71490,N,12720.93373,E,030026.00,A,A*76
$GNRMC,030027.00,A,3621.71487,N,12720.93366,E,0.028,,030518,,,A*69
$GNVTG,,T,,M,0.028,N,0.052,K,A*30
$GNGGA,030027.00,3621.71487,N,12720.93366,E,1,12,0.72,69.6,M,20.0,M,,*7D
$GNGSA,A,3,23,26,31,16,21,27,29,14,,,,,1.40,0.72,1.20*17
$GNGSA,A,3,78,87,79,77,81,88,,,,,,,1.40,0.72,1.20*18
$GPGSV,4,1,14,03,06,257,,04,,,37,08,00,208,,09,05,324,21*44
$GPGSV,4,2,14,14,30,171,29,16,62,288,38,21,18,100,24,22,01,236,*71
$GPGSV,4,3,14,23,36,302,40,26,67,010,43,27,34,195,33,29,17,040,25*78
$GPGSV,4,4,14,31,51,096,32,32,04,162,*74
$GLGSV,3,1,09,67,03,199,,68,29,245,,69,28,233,,77,28,073,29*69
$GLGSV,3,2,09,78,54,009,38,79,33,312,43,81,21,166,39,87,33,046,33*64
$GLGSV,3,3,09,88,50,112,22*5B
$GNGLL,3621.71487,N,12720.93366,E,030027.00,A,A*75
$GNRMC,030028.00,A,3621.71485,N,12720.93360,E,0.013,,030518,,,A*6A
$GNVTG,,T,,M,0.013,N,0.024,K,A*39
$GNGGA,030028.00,3621.71485,N,12720.93360,E,1,12,0.72,69.7,M,20.0,M,,*77
$GNGSA,A,3,23,26,31,16,21,27,29,14,,,,,1.40,0.72,1.20*17
$GNGSA,A,3,78,87,79,77,81,88,,,,,,,1.40,0.72,1.20*18
$GPGSV,4,1,14,03,06,257,,04,,,36,08,00,208,,09,05,324,21*45
$GPGSV,4,2,14,14,30,171,29,16,62,288,38,21,18,100,24,22,01,236,*71
$GPGSV,4,3,14,23,36,302,40,26,67,010,43,27,34,195,33,29,17,040,25*78
$GPGSV,4,4,14,31,51,096,32,32,04,162,*74
$GLGSV,3,1,09,67,03,199,,68,29,245,,69,28,233,,77,28,073,28*68
$GLGSV,3,2,09,78,54,009,38,79,33,312,43,81,21,166,39,87,33,046,33*64
$GLGSV,3,3,09,88,50,112,22*5B
$GNGLL,3621.71485,N,12720.93360,E,030028.00,A,A*7E
$GNRMC,030029.00,A,3621.71484,N,12720.93355,E,0.018,,030518,,,A*67
$GNVTG,,T,,M,0.018,N,0.033,K,A*34
$GNGGA,030029.00,3621.71484,N,12720.93355,E,1,12,0.72,69.7,M,20.0,M,,*71
$GNGSA,A,3,23,26,31,16,21,27,29,14,,,,,1.40,0.72,1.20*17
$GNGSA,A,3,78,87,79,77,81,88,,,,,,,1.40,0.72,1.20*18
$GPGSV,4,1,14,03,06,257,,04,,,36,08,00,208,,09,05,324,22*46
$GPGSV,4,2,14,14,30,171,29,16,62,288,38,21,18,100,23,22,01,236,*76
$GPGSV,4,3,14,23,36,302,40,26,67,010,43,27,34,195,33,29,17,040,25*78
$GPGSV,4,4,14,31,51,096,32,32,04,162,*74
$GLGSV,3,1,09,67,03,199,,68,29,245,,69,28,233,,77,28,073,28*68
$GLGSV,3,2,09,78,54,009,38,79,33,312,43,81,21,166,39,87,33,046,33*64
$GLGSV,3,3,09,88,50,112,23*5A
$GNGLL,3621.71484,N,12720.93355,E,030029.00,A,A*78
$GNRMC,030030.00,A,3621.71483,N,12720.93352,E,0.020,,030518,,,A*64
$GNVTG,,T,,M,0.020,N,0.036,K,A*3A
$GNGGA,030030.00,3621.71483,N,12720.93352,E,1,12,0.72,69.6,M,20.0,M,,*78
$GNGSA,A,3,23,26,31,16,21,27,29,14,,,,,1.40,0.72,1.20*17
$GNGSA,A,3,78,87,79,77,81,88,,,,,,,1.40,0.72,1.20*18
$GPGSV,4,1,14,03,06,257,,04,,,36,08,00,208,,09,05,324,22*46
$GPGSV,4,2,14,14,30,171,29,16,62,288,37,21,18,100,23,22,01,236,*79
$GPGSV,4,3,14,23,36,302,40,26,67,010,43,27,34,195,33,29,17,040,25*78
$GPGSV,4,4,14,31,51,096,32,32,04,162,*74
$GLGSV,3,1,09,67,03,199,,68,29,245,,69,28,233,,77,28,073,28*68
$GLGSV,3,2,09,78,54,009,38,79,33,312,43,81,21,166,39,87,33,046,33*64
$GLGSV,3,3,09,88,50,112,22*5B
$GNGLL,3621.71483,N,12720.93352,E,030030.00,A,A*70
$GNRMC,030031.00,A,3621.71481,N,12720.93348,E,0.027,,030518,,,A*6B
$GNVTG,,T,,M,0.027,N,0.049,K,A*35
$GNGGA,030031.00,3621.71481,N,12720.93348,E,1,12,0.72,69.6,M,20.0,M,,*70
$GNGSA,A,3,23,26,31,16,21,27,29,14,,,,,1.40,0.72,1.20*17
$GNGSA,A,3,78,87,79,77,81,88,,,,,,,1.40,0.72,1.20*18
$GPGSV,4,1,14,03,06,257,,04,,,36,08,00,208,,09,05,324,22*46
$GPGSV,4,2,14,14,30,171,29,16,62,288,37,21,18,100,23,22,01,236,*79
$GPGSV,4,3,14,23,36,302,40,26,67,010,43,27,34,195,34,29,17,040,25*7F
$GPGSV,4,4,14,31,51,096,32,32,04,162,*74
$GLGSV,3,1,09,67,03,199,,68,29,245,,69,28,233,,77,28,073,27*67
$GLGSV,3,2,09,78,54,009,38,79,33,312,43,81,21,166,39,87,33,046,33*64
$GLGSV,3,3,09,88,50,112,22*5B
$GNGLL,3621.71481,N,12720.93348,E,030031.00,A,A*78
$GNRMC,030032.00,A,3621.71479,N,12720.93343,E,0.023,,030518,,,A*60
$GNVTG,,T,,M,0.023,N,0.042,K,A*3A
$GNGGA,030032.00,3621.71479,N,12720.93343,E,1,12,0.72,69.7,M,20.0,M,,*7E
$GNGSA,A,3,23,26,31,16,21,27,29,14,,,,,1.40,0.72,1.20*17
$GNGSA,A,3,78,87,79,77,81,88,,,,,,,1.40,0.72,1.20*18
$GPGSV,4,1,14,03,06,257,,04,,,36,08,00,208,,09,05,324,23*47
$GPGSV,4,2,14,14,30,171,29,16,62,288,38,21,18,100,23,22,01,236,*76
$GPGSV,4,3,14,23,36,302,40,26,67,010,43,27,34,195,34,29,17,040,25*7F
$GPGSV,4,4,14,31,51,096,32,32,04,162,*74
$GLGSV,3,1,09,67,03,199,,68,29,245,,69,28,233,,77,28,073,27*67
$GLGSV,3,2,09,78,54,009,38,79,33,312,43,81,21,166,39,87,33,046,33*64
$GLGSV,3,3,09,88,50,112,21*58
$GNGLL,3621.71479,N,12720.93343,E,030032.00,A,A*77
$GNRMC,030033.00,A,3621.71477,N,12720.93339,E,0.014,,030518,,,A*66
$GNVTG,,T,,M,0.014,N,0.026,K,A*3C
$GNGGA,030033.00,3621.71477,N,12720.93339,E,1,12,0.72,69.7,M,20.0,M,,*7C
$GNGSA,A,3,23,26,31,16,21,27,29,14,,,,,1.40,0.72,1.20*17
$GNGSA,A,3,78,87,79,77,81,88,,,,,,,1.40,0.72,1.20*18
$GPGSV,4,1,14,03,06,257,,04,,,36,08,00,208,,09,05,324,23*47
$GPGSV,4,2,14,14,30,171,29,16,62,288,38,21,18,100,23,22,01,236,*76
$GPGSV,4,3,14,23,36,302,40,26,67,010,43,27,34,195,34,29,17,040,25*7F
$GPGSV,4,4,14,31,51,096,32,32,04,162,*74
$GLGSV,3,1,09,67,03,199,,68,29,245,,69,28,233,,77,28,073,27*67
$GLGSV,3,2,09,78,54,009,38,79,33,312,43,81,21,166,39,87,33,046,33*64
$GLGSV,3,3,09,88,50,112,21*58
$GNGLL,3621.71477,N,12720.93339,E,030033.00,A,A*75
$GNRMC,030034.00,A,3621.71475,N,12720.93335,E,0.023,,030518,,,A*6B
$GNVTG,,T,,M,0.023,N,0.043,K,A*3B
$GNGGA,030034.00,3621.71475,N,12720.93335,E,1,12,0.72,69.7,M,20.0,M,,*75
$GNGSA,A,3,23,26,31,16,21,27,29,14,,,,,1.40,0.72,1.20*17
$GNGSA,A,3,78,87,79,77,81,88,,,,,,,1.40,0.72,1.20*18
$GPGSV,4,1,14,03,06,257,,04,,,36,08,00,208,,09,05,324,22*46
$GPGSV,4,2,14,14,30,171,29,16,62,288,38,21,18,100,23,22,01,236,*76
$GPGSV,4,3,14,23,36,302,40,26,67,010,43,27,34,195,33,29,17,040,24*79
$GPGSV,4,4,14,31,51,096,32,32,04,162,*74
$GLGSV,3,1,09,67,03,199,,68,29,245,,69,28,233,,77,28,073,26*66
$GLGSV,3,2,09,78,54,009,38,79,33,312,43,81,21,166,39,87,33,046,33*64
$GLGSV,3,3,09,88,50,112,22*5B
$GNGLL,3621.71475,N,12720.93335,E,030034.00,A,A*7C
$GNRMC,030035.00,A,3621.71473,N,12720.93331,E,0.039,,030518,,,A*63
$GNVTG,,T,,M,0.039,N,0.072,K,A*32
$GNGGA,030035.00,3621.71473,N,12720.93331,E,1,12,0.72,69.8,M,20.0,M,,*79
$GNGSA,A,3,23,26,31,16,21,27,29,14,,,,,1.40,0.72,1.20*17
$GNGSA,A,3,78,87,79,77,81,88,,,,,,,1.40,0.72,1.20*18
$GPGSV,4,1,14,03,06,257,,04,,,36,08,00,208,,09,05,324,22*46
$GPGSV,4,2,14,14,30,171,29,16,62,288,38,21,18,100,23,22,01,236,*76
$GPGSV,4,3,14,23,36,302,40,26,67,010,43,27,34,195,33,29,17,040,24*79
$GPGSV,4,4,14,31,51,096,32,32,04,162,*74
$GLGSV,3,1,09,67,03,199,,68,29,245,,69,28,233,,77,28,073,27*67
$GLGSV,3,2,09,78,54,009,38,79,33,312,43,81,21,166,39,87,33,046,33*64
$GLGSV,3,3,09,88,50,112,22*5B
$GNGLL,3621.71473,N,12720.93331,E,030035.00,A,A*7F
$GNRMC,030036.00,A,3621.71471,N,12720.93327,E,0.025,,030518,,,A*68
$GNVTG,,T,,M,0.025,N,0.047,K,A*39
$GNGGA,030036.00,3621.71471,N,12720.93327,E,1,12,0.72,69.8,M,20.0,M,,*7F
$GNGSA,A,3,23,26,31,16,21,27,29,14,,,,,1.40,0.72,1.20*17
$GNGSA,A,3,78,87,79,77,81,88,,,,,,,1.40,0.72,1.20*18
$GPGSV,4,1,14,03,06,257,,04,,,36,08,00,208,,09,05,324,22*46
$GPGSV,4,2,14,14,30,171,29,16,62,288,38,21,18,100,23,22,01,236,*76
$GPGSV,4,3,14,23,36,302,40,26,67,010,43,27,34,195,33,29,17,040,24*79
$GPGSV,4,4,14,31,51,096,32,32,04,162,*74
$GLGSV,3,1,09,67,03,199,,68,29,245,,69,28,233,,77,28,073,27*67
$GLGSV,3,2,09,78,54,009,38,79,33,312,43,81,21,166,39,87,33,046,33*64
$GLGSV,3,3,09,88,50,112,22*5B
$GNGLL,3621.71471,N,12720.93327,E,030036.00,A,A*79
$GNRMC,030037.00,A,3621.71467,N,12720.93320,E,0.075,,030518,,,A*6C
$GNVTG,,T,,M,0.075,N,0.139,K,A*34
$GNGGA,030037.00,3621.71467,N,12720.93320,E,1,12,0.72,70.0,M,20.0,M,,*7E
$GNGSA,A,3,23,26,31,16,21,27,29,14,,,,,1.40,0.72,1.20*17
$GNGSA,A,3,78,87,79,77,81,88,,,,,,,1.40,0.72,1.20*18
$GPGSV,4,1,14,03,06,257,,04,,,39,08,00,208,,09,05,324,25*4E
$GPGSV,4,2,14,14,30,171,29,16,62,288,42,21,18,100,26,22,01,236,*7E
$GPGSV,4,3,14,23,36,302,43,26,67,010,45,27,34,195,35,29,17,040,28*76
$GPGSV,4,4,14,31,51,096,34,32,04,162,*72
$GLGSV,3,1,09,67,03,199,,68,29,245,,69,28,233,,77,28,073,28*68
$GLGSV,3,2,09,78,54,009,39,79,33,312,45,81,21,166,40,87,33,046,32*6C
$GLGSV,3,3,09,88,50,112,23*5A
$GNGLL,3621.71467,N,12720.93320,E,030037.00,A,A*78
$GNRMC,030038.00,A,3621.71467,N,12720.93317,E,0.028,,030518,,,A*6F
$GNVTG,,T,,M,0.028,N,0.051,K,A*33
$GNGGA,030038.00,3621.71467,N,12720.93317,E,1,12,0.72,70.0,M,20.0,M,,*75
$GNGSA,A,3,23,26,31,16,21,27,29,14,,,,,1.40,0.72,1.20*17
$GNGSA,A,3,78,87,79,77,81,88,,,,,,,1.40,0.72,1.20*18
$GPGSV,4,1,14,03,06,257,23,04,,,40,08,00,208,,09,05,324,25*41
$GPGSV,4,2,14,14,30,171,34,16,62,288,41,21,18,100,27,22,01,236,*70
$GPGSV,4,3,14,23,36,302,43,26,67,010,46,27,34,195,38,29,17,040,29*79
$GPGSV,4,4,14,31,51,096,37,32,04,162,*71
$GLGSV,3,1,09,67,03,199,,68,29,245,,69,28,233,,77,28,073,28*68
$GLGSV,3,2,09,78,54,009,40,79,33,312,45,81,21,166,40,87,33,046,33*63
$GLGSV,3,3,09,88,50,112,24*5D
$GNGLL,3621.71467,N,12720.93317,E,030038.00,A,A*73
$GNRMC,030039.00,A,3621.71466,N,12720.93316,E,0.030,,030518,,,A*67
$GNVTG,,T,,M,0.030,N,0.055,K,A*3E
$GNGGA,030039.00,3621.71466,N,12720.93316,E,1,12,0.72,70.0,M,20.0,M,,*74
$GNGSA,A,3,23,26,31,16,21,27,29,14,,,,,1.40,0.72,1.20*17
$GNGSA,A,3,78,87,79,77,81,88,,,,,,,1.40,0.72,1.20*18
$GPGSV,4,1,14,03,06,257,21,04,,,39,08,00,208,,09,05,324,25*4D
$GPGSV,4,2,14,14,30,171,33,16,62,288,41,21,18,100,27,22,01,236,*77
$GPGSV,4,3,14,23,36,302,44,26,67,010,46,27,34,195,37,29,17,040,28*70
$GPGSV,4,4,14,31,51,096,36,32,04,162,*70
$GLGSV,3,1,09,67,03,199,,68,29,245,,69,28,233,,77,28,073,28*68
$GLGSV,3,2,09,78,54,009,40,79,33,312,45,81,21,166,41,87,33,046,34*65
$GLGSV,3,3,09,88,50,112,24*5D
$GNGLL,3621.71466,N,12720.93316,E,030039.00,A,A*72
$GNRMC,030040.00,A,3621.71464,N,12720.93315,E,0.052,,030518,,,A*6C
$GNVTG,,T,,M,0.052,N,0.096,K,A*35
$GNGGA,030040.00,3621.71464,N,12720.93315,E,1,12,0.72,69.9,M,20.0,M,,*7A
$GNGSA,A,3,23,26,31,16,21,27,29,14,,,,,1.40,0.72,1.20*17
$GNGSA,A,3,78,87,79,77,81,88,,,,,,,1.40,0.72,1.20*18
$GPGSV,4,1,14,03,06,257,20,04,,,39,08,00,208,,09,05,324,25*4C
$GPGSV,4,2,14,14,30,171,33,16,62,288,41,21,18,100,27,22,01,236,*77
$GPGSV,4,3,14,23,36,302,44,26,67,010,46,27,34,195,36,29,17,040,28*71
$GPGSV,4,4,14,31,51,096,35,32,04,162,*73
$GLGSV,3,1,09,67,03,199,,68,29,245,,69,28,233,,77,28,073,29*69
$GLGSV,3,2,09,78,54,009,40,79,33,312,45,81,21,166,41,87,33,046,33*62
$GLGSV,3,3,09,88,50,112,24*5D
$GNGLL,3621.71464,N,12720.93315,E,030040.00,A,A*7D
$GNRMC,030041.00,A,3621.71463,N,12720.93314,E,0.029,,030518,,,A*67
$GNVTG,,T,,M,0.029,N,0.053,K,A*30
$GNGGA,030041.00,3621.71463,N,12720.93314,E,1,12,0.72,69.9,M,20.0,M,,*7D
$GNGSA,A,3,23,26,31,16,21,27,29,14,,,,,1.40,0.72,1.20*17
$GNGSA,A,3,78,87,79,77,81,88,,,,,,,1.40,0.72,1.20*18
$GPGSV,4,1,14,03,06,257,18,04,,,39,08,00,208,,09,05,324,*40
$GPGSV,4,2,14,14,30,171,32,16,62,288,41,21,18,100,27,22,01,236,*76
$GPGSV,4,3,14,23,36,302,44,26,67,010,46,27,34,195,37,29,17,040,28*70
$GPGSV,4,4,14,31,51,096,35,32,04,162,*73
$GLGSV,3,1,09,67,03,199,,68,29,245,,69,28,233,,77,28,073,30*61
$GLGSV,3,2,09,78,54,009,40,79,33,312,45,81,21,166,41,87,33,046,33*62
$GLGSV,3,3,09,88,50,112,24*5D
$GNGLL,3621.71463,N,12720.93314,E,030041.00,A,A*7A
$GNRMC,030042.00,A,3621.71462,N,12720.93313,E,0.033,,030518,,,A*69
$GNVTG,,T,,M,0.033,N,0.060,K,A*3B
$GNGGA,030042.00,3621.71462,N,12720.93313,E,1,12,0.72,70.0,M,20.0,M,,*79
$GNGSA,A,3,23,26,31,16,21,27,29,14,,,,,1.40,0.72,1.20*17
$GNGSA,A,3,78,87,79,77,81,88,,,,,,,1.40,0.72,1.20*18
$GPGSV,4,1,14,03,06,257,16,04,,,39,08,00,208,,09,05,324,*4E
$GPGSV,4,2,14,14,30,171,31,16,62,288,41,21,18,100,26,22,01,236,*74
$GPGSV,4,3,14,23,36,302,43,26,67,010,45,27,34,195,36,29,17,040,28*75
$GPGSV,4,4,14,31,51,096,35,32,04,162,*73
$GLGSV,3,1,09,67,03,199,,68,29,245,,69,28,233,,77,28,073,30*61
$GLGSV,3,2,09,78,54,009,40,79,33,312,45,81,21,166,41,87,33,046,33*62
$GLGSV,3,3,09,88,50,112,24*5D
$GNGLL,3621.71462,N,12720.93313,E,030042.00,A,A*7F
$GNRMC,030043.00,A,3621.71461,N,12720.93313,E,0.005,,030518,,,A*6E
$GNVTG,,T,,M,0.005,N,0.010,K,A*39
$GNGGA,030043.00,3621.71461,N,12720.93313,E,1,12,0.72,70.0,M,20.0,M,,*7B
$GNGSA,A,3,23,26,31,16,21,27,29,14,,,,,1.40,0.72,1.20*17
$GNGSA,A,3,78,87,79,77,81,88,,,,,,,1.40,0.72,1.20*18
$GPGSV,4,1,14,03,06,257,14,04,,,39,08,00,208,,09,05,324,*4C
$GPGSV,4,2,14,14,30,171,32,16,62,288,41,21,18,100,26,22,01,236,*77
$GPGSV,4,3,14,23,36,302,43,26,67,010,45,27,34,195,36,29,17,040,28*75
$GPGSV,4,4,14,31,51,096,35,32,04,162,*73
$GLGSV,3,1,09,67,03,199,,68,29,245,,69,28,233,,77,28,073,30*61
$GLGSV,3,2,09,78,54,009,40,79,33,312,46,81,21,166,41,87,33,046,33*61
$GLGSV,3,3,09,88,50,112,24*5D
$GNGLL,3621.71461,N,12720.93313,E,030043.00,A,A*7D
$GNRMC,030044.00,A,3621.71460,N,12720.93311,E,0.082,,030518,,,A*65
$GNVTG,,T,,M,0.082,N,0.152,K,A*31
$GNGGA,030044.00,3621.71460,N,12720.93311,E,1,12,0.73,70.0,M,20.0,M,,*7E
$GNGSA,A,3,23,26,31,16,21,27,29,14,,,,,1.40,0.73,1.20*16
$GNGSA,A,3,78,87,79,77,81,88,,,,,,,1.40,0.73,1.20*19
$GPGSV,4,1,14,03,06,257,13,04,,,39,08,00,208,,09,05,324,*4B
$GPGSV,4,2,14,14,30,171,32,16,62,288,41,21,18,100,26,22,01,236,*77
$GPGSV,4,3,14,23,36,302,43,26,67,010,45,27,34,195,35,29,17,040,27*79
$GPGSV,4,4,14,31,51,096,35,32,04,162,*73
$GLGSV,3,1,09,67,03,199,,68,29,245,,69,28,233,,77,28,073,31*60
$GLGSV,3,2,09,78,54,009,39,79,33,312,45,81,21,166,41,87,33,046,33*6C
$GLGSV,3,3,09,88,50,112,23*5A
$GNGLL,3621.71460,N,12720.93311,E,030044.00,A,A*79
$GNRMC,030045.00,A,3621.71460,N,12720.93312,E,0.014,,030518,,,A*68
$GNVTG,,T,,M,0.014,N,0.027,K,A*3D
$GNGGA,030045.00,3621.71460,N,12720.93312,E,1,12,0.73,70.0,M,20.0,M,,*7C
$GNGSA,A,3,23,26,31,16,21,27,29,14,,,,,1.40,0.73,1.20*16
$GNGSA,A,3,78,87,79,77,81,88,,,,,,,1.40,0.73,1.20*19
$GPGSV,4,1,14,03,06,257,14,04,,,39,08,00,208,,09,05,324,*4C
$GPGSV,4,2,14,14,30,171,31,16,62,288,41,21,18,100,26,22,01,236,*74
$GPGSV,4,3,14,23,36,302,43,26,67,010,45,27,34,195,36,29,17,040,27*7A
$GPGSV,4,4,14,31,51,096,35,32,04,162,*73
$GLGSV,3,1,09,67,03,199,,68,28,245,,69,28,233,,77,28,073,31*61
$GLGSV,3,2,09,78,54,009,40,79,33,312,45,81,21,166,41,87,33,046,33*62
$GLGSV,3,3,09,88,50,112,23*5A
$GNGLL,3621.71460,N,12720.93312,E,030045.00,A,A*7B
$GNRMC,030046.00,A,3621.71460,N,12720.93311,E,0.056,,030518,,,A*6E
$GNVTG,,T,,M,0.056,N,0.103,K,A*3C
$GNGGA,030046.00,3621.71460,N,12720.93311,E,1,12,0.73,70.0,M,20.0,M,,*7C
$GNGSA,A,3,23,26,31,16,21,27,29,14,,,,,1.40,0.73,1.20*16
$GNGSA,A,3,78,87,79,77,81,88,,,,,,,1.40,0.73,1.20*19
$GPGSV,4,1,14,03,06,257,15,04,,,39,08,00,208,,09,05,324,*4D
$GPGSV,4,2,14,14,30,171,31,16,62,288,41,21,18,100,27,22,01,236,*75
$GPGSV,4,3,14,23,36,302,43,26,67,010,45,27,34,195,36,29,17,040,28*75
$GPGSV,4,4,14,31,51,096,35,32,04,162,*73
$GLGSV,3,1,09,67,03,199,,68,28,245,,69,27,232,,77,28,073,31*6F
$GLGSV,3,2,09,78,54,009,40,79,33,312,45,81,21,166,41,87,33,046,32*63
$GLGSV,3,3,09,88,50,112,23*5A
$GNGLL,3621.71460,N,12720.93311,E,030046.00,A,A*7B
$GNRMC,030047.00,A,3621.71461,N,12720.93312,E,0.021,,030518,,,A*6D
$GNVTG,,T,,M,0.021,N,0.039,K,A*34
$GNGGA,030047.00,3621.71461,N,12720.93312,E,1,12,0.73,70.0,M,20.0,M,,*7F
$GNGSA,A,3,23,26,31,16,21,27,29,14,,,,,1.40,0.73,1.20*16
$GNGSA,A,3,78,87,79,77,81,88,,,,,,,1.40,0.73,1.20*19
$GPGSV,4,1,14,03,06,257,16,04,,,39,08,00,208,,09,05,324,*4E
$GPGSV,4,2,14,14,30,171,31,16,62,288,41,21,18,100,27,22,01,236,*75
$GPGSV,4,3,14,23,36,302,43,26,67,010,45,27,34,195,36,29,17,040,28*75
$GPGSV,4,4,14,31,51,096,35,32,04,162,*73
$GLGSV,3,1,09,67,03,199,,68,28,245,,69,27,232,,77,28,073,32*6C
$GLGSV,3,2,09,78,54,009,40,79,33,312,45,81,21,166,41,87,33,046,32*63
$GLGSV,3,3,09,88,50,112,23*5A
$GNGLL,3621.71461,N,12720.93312,E,030047.00,A,A*78
$GNRMC,030048.00,A,3621.71463,N,12720.93316,E,0.014,,030518,,,A*62
$GNVTG,,T,,M,0.014,N,0.027,K,A*3D
$GNGGA,030048.00,3621.71463,N,12720.93316,E,1,12,0.73,69.9,M,20.0,M,,*77
$GNGSA,A,3,23,26,31,16,21,27,29,14,,,,,1.40,0.73,1.20*16
$GNGSA,A,3,78,87,79,77,81,88,,,,,,,1.40,0.73,1.20*19
$GPGSV,4,1,14,03,06,257,16,04,,,38,08,00,208,,09,05,324,*4F
$GPGSV,4,2,14,14,30,171,31,16,62,288,40,21,18,100,26,22,01,236,*75
$GPGSV,4,3,14,23,36,302,42,26,67,010,44,27,34,195,35,29,17,040,27*79
$GPGSV,4,4,14,31,51,096,34,32,04,162,*72
$GLGSV,3,1,09,67,03,199,,68,28,245,,69,27,232,,77,28,073,32*6C
$GLGSV,3,2,09,78,54,009,40,79,33,312,45,81,21,166,41,87,33,046,32*63
$GLGSV,3,3,09,88,50,112,24*5D
$GNGLL,3621.71463,N,12720.93316,E,030048.00,A,A*71
$GNRMC,030049.00,A,3621.71463,N,12720.93318,E,0.014,,030518,,,A*6D
$GNVTG,,T,,M,0.014,N,0.026,K,A*3C
$GNGGA,030049.00,3621.71463,N,12720.93318,E,1,12,0.73,69.9,M,20.0,M,,*78
$GNGSA,A,3,23,26,31,16,21,27,29,14,,,,,1.40,0.73,1.20*16
$GNGSA,A,3,78,87,79,77,81,88,,,,,,,1.40,0.73,1.20*19
$GPGSV,4,1,14,03,06,257,14,04,,,38,08,00,208,,09,05,324,*4D
$GPGSV,4,2,14,14,30,171,31,16,62,288,40,21,18,100,25,22,01,236,*76
$GPGSV,4,3,14,23,36,302,43,26,67,010,44,27,34,195,35,29,17,040,27*78
$GPGSV,4,4,14,31,51,096,34,32,04,162,*72
$GLGSV,3,1,09,67,03,199,,68,28,245,,69,27,232,,77,28,073,32*6C
$GLGSV,3,2,09,78,54,009,40,79,33,312,45,81,21,166,41,87,33,046,32*63
$GLGSV,3,3,09,88,50,112,24*5D
$GNGLL,3621.71463,N,12720.93318,E,030049.00,A,A*7E
$GNRMC,030050.00,A,3621.71463,N,12720.93321,E,0.028,,030518,,,A*60
$GNVTG,,T,,M,0.028,N,0.052,K,A*30
$GNGGA,030050.00,3621.71463,N,12720.93321,E,1,12,0.73,69.9,M,20.0,M,,*7A
$GNGSA,A,3,23,26,31,16,21,27,29,14,,,,,1.40,0.73,1.20*16
$GNGSA,A,3,78,87,79,77,81,88,,,,,,,1.40,0.73,1.20*19
$GPGSV,4,1,14,03,06,257,15,04,,,38,08,00,208,,09,05,324,*4C
$GPGSV,4,2,14,14,30,171,31,16,62,288,40,21,18,100,26,22,01,236,*75
$GPGSV,4,3,14,23,36,302,42,26,67,010,44,27,34,195,35,29,17,040,27*79
$GPGSV,4,4,14,31,51,096,34,32,04,162,*72
$GLGSV,3,1,09,67,03,199,,68,28,245,,69,27,232,,77,28,073,33*6D
$GLGSV,3,2,09,78,54,009,40,79,33,312,45,81,21,166,41,87,33,046,32*63
$GLGSV,3,3,09,88,50,112,25*5C
$GNGLL,3621.71463,N,12720.93321,E,030050.00,A,A*7C
$GNRMC,030051.00,A,3621.71464,N,12720.93322,E,0.048,,030518,,,A*63
$GNVTG,,T,,M,0.048,N,0.088,K,A*31
$GNGGA,030051.00,3621.71464,N,12720.93322,E,1,12,0.73,69.8,M,20.0,M,,*7E
$GNGSA,A,3,23,26,31,16,21,27,29,14,,,,,1.40,0.73,1.20*16
$GNGSA,A,3,78,87,79,77,81,88,,,,,,,1.40,0.73,1.20*19
$GPGSV,4,1,14,03,06,257,16,04,,,38,08,00,208,,09,05,324,*4F
$GPGSV,4,2,14,14,30,171,31,16,62,288,39,21,18,100,26,22,01,236,*7B
$GPGSV,4,3,14,23,36,302,42,26,67,010,44,27,34,195,35,29,17,040,26*78
$GPGSV,4,4,14,31,51,096,34,32,04,162,*72
$GLGSV,3,1,09,67,03,199,,68,28,245,,69,27,232,,77,28,073,33*6D
$GLGSV,3,2,09,78,54,009,40,79,33,312,45,81,21,166,41,87,33,046,32*63
$GLGSV,3,3,09,88,50,112,24*5D
$GNGLL,3621.71464,N,12720.93322,E,030051.00,A,A*79
$GNRMC,030052.00,A,3621.71465,N,12720.93327,E,0.037,,030518,,,A*6C
$GNVTG,,T,,M,0.037,N,0.069,K,A*36
$GNGGA,030052.00,3621.71465,N,12720.93327,E,1,12,0.73,69.8,M,20.0,M,,*79
$GNGSA,A,3,23,26,31,16,21,27,29,14,,,,,1.40,0.73,1.20*16
$GNGSA,A,3,78,87,79,77,81,88,,,,,,,1.40,0.73,1.20*19
$GPGSV,4,1,14,03,06,257,16,04,,,38,08,00,208,,09,05,324,23*4E
$GPGSV,4,2,14,14,30,171,30,16,62,288,39,21,18,100,26,22,01,236,*7A
$GPGSV,4,3,14,23,36,302,42,26,67,010,44,27,34,195,35,29,17,040,26*78
$GPGSV,4,4,14,31,51,096,34,32,04,162,*72
$GLGSV,3,1,09,67,03,199,,68,28,245,,69,27,232,,77,28,073,33*6D
$GLGSV,3,2,09,78,54,009,40,79,33,312,45,81,21,166,41,87,33,046,32*63
$GLGSV,3,3,09,88,50,112,25*5C
$GNGLL,3621.71465,N,12720.93327,E,030052.00,A,A*7E
$GNRMC,030053.00,A,3621.71467,N,12720.93331,E,0.022,,030518,,,A*6C
$GNVTG,,T,,M,0.022,N,0.041,K,A*38
$GNGGA,030053.00,3621.71467,N,12720.93331,E,1,12,0.73,69.7,M,20.0,M,,*72
$GNGSA,A,3,23,26,31,16,21,27,29,14,,,,,1.40,0.73,1.20*16
$GNGSA,A,3,78,87,79,77,81,88,,,,,,,1.40,0.73,1.20*19
$GPGSV,4,1,14,03,06,257,16,04,,,38,08,00,208,,09,05,324,24*49
$GPGSV,4,2,14,14,30,171,30,16,62,288,39,21,18,100,26,22,01,236,*7A
$GPGSV,4,3,14,23,36,302,43,26,67,010,44,27,34,195,35,29,17,040,27*78
$GPGSV,4,4,14,31,51,096,34,32,04,162,*72
$GLGSV,3,1,09,67,03,199,,68,28,245,,69,27,232,,77,28,073,33*6D
$GLGSV,3,2,09,78,54,009,40,79,33,312,45,81,21,166,41,87,33,046,31*60
$GLGSV,3,3,09,88,50,112,25*5C
$GNGLL,3621.71467,N,12720.93331,E,030053.00,A,A*7A
$GNRMC,030054.00,A,3621.71468,N,12720.93335,E,0.002,,030518,,,A*62
$GNVTG,,T,,M,0.002,N,0.004,K,A*3B
$GNGGA,030054.00,3621.71468,N,12720.93335,E,1,12,0.73,69.7,M,20.0,M,,*7E
$GNGSA,A,3,23,26,31,16,21,27,29,14,,,,,1.40,0.73,1.20*16
$GNGSA,A,3,78,87,79,77,81,88,,,,,,,1.40,0.73,1.20*19
$GPGSV,4,1,14,03,06,257,17,04,,,38,08,00,208,,09,05,324,24*48
$GPGSV,4,2,14,14,30,171,30,16,62,288,39,21,18,100,26,22,01,236,*7A
$GPGSV,4,3,14,23,36,302,42,26,67,010,44,27,34,195,35,29,17,040,27*79
$GPGSV,4,4,14,31,51,096,34,32,04,162,*72
$GLGSV,3,1,09,67,03,199,,68,28,245,,69,27,232,,77,28,074,33*6A
$GLGSV,3,2,09,78,54,009,40,79,33,312,45,81,21,166,41,87,33,046,31*60
$GLGSV,3,3,09,88,50,112,25*5C
$GNGLL,3621.71468,N,12720.93335,E,030054.00,A,A*76
$GNRMC,030055.00,A,3621.71470,N,12720.93339,E,0.048,,030518,,,A*68
$GNVTG,,T,,M,0.048,N,0.090,K,A*38
$GNGGA,030055.00,3621.71470,N,12720.93339,E,1,12,0.73,69.6,M,20.0,M,,*7B
$GNGSA,A,3,23,26,31,16,21,27,29,14,,,,,1.40,0.73,1.20*16
$GNGSA,A,3,78,87,79,77,81,88,,,,,,,1.40,0.73,1.20*19
$GPGSV,4,1,14,03,06,257,18,04,,,38,08,00,208,,09,05,324,24*47
$GPGSV,4,2,14,14,30,171,30,16,62,288,39,21,18,100,26,22,01,236,*7A
$GPGSV,4,3,14,23,36,302,42,26,67,010,44,27,34,195,35,29,17,040,27*79
$GPGSV,4,4,14,31,51,096,34,32,04,162,*72
$GLGSV,3,1,09,67,03,199,,68,28,245,,69,27,232,,77,28,074,34*6D
$GLGSV,3,2,09,78,54,010,40,79,33,312,45,81,21,166,41,87,33,046,31*68
$GLGSV,3,3,09,88,50,112,25*5C
$GNGLL,3621.71470,N,12720.93339,E,030055.00,A,A*72
$GNRMC,030056.00,A,3621.71472,N,12720.93343,E,0.045,,030518,,,A*69
$GNVTG,,T,,M,0.045,N,0.084,K,A*30
$GNGGA,030056.00,3621.71472,N,12720.93343,E,1,12,0.73,69.6,M,20.0,M,,*77
$GNGSA,A,3,23,26,31,16,21,27,29,14,,,,,1.40,0.73,1.20*16
$GNGSA,A,3,78,87,79,77,81,88,,,,,,,1.40,0.73,1.20*19
$GPGSV,4,1,14,03,06,257,19,04,,,38,08,00,208,,09,05,324,24*46
$GPGSV,4,2,14,14,30,171,30,16,62,288,39,21,18,100,26,22,01,236,*7A
$GPGSV,4,3,14,23,36,302,42,26,67,010,44,27,34,195,35,29,17,040,27*79
$GPGSV,4,4,14,31,51,096,34,32,04,162,*72
$GLGSV,3,1,09,67,03,199,,68,28,245,,69,27,232,,77,28,074,33*6A
$GLGSV,3,2,09,78,54,010,40,79,33,313,45,81,21,166,41,87,33,046,32*6A
$GLGSV,3,3,09,88,50,112,25*5C
$GNGLL,3621.71472,N,12720.93343,E,030056.00,A,A*7E
$GNRMC,030057.00,A,3621.71473,N,12720.93347,E,0.005,,030518,,,A*69
$GNVTG,,T,,M,0.005,N,0.009,K,A*31
$GNGGA,030057.00,3621.71473,N,12720.93347,E,1,12,0.73,69.5,M,20.0,M,,*70
$GNGSA,A,3,23,26,31,16,21,27,29,14,,,,,1.40,0.73,1.20*16
$GNGSA,A,3,78,87,79,77,81,88,,,,,,,1.40,0.73,1.20*19
$GPGSV,4,1,14,03,06,257,19,04,,,38,08,00,208,,09,05,324,25*47
$GPGSV,4,2,14,14,30,171,30,16,62,288,39,21,18,100,26,22,01,236,*7A
$GPGSV,4,3,14,23,36,302,42,26,67,010,44,27,34,195,34,29,17,040,26*79
$GPGSV,4,4,14,31,51,096,34,32,04,162,*72
$GLGSV,3,1,09,67,03,199,,68,28,245,,69,27,232,,77,28,074,33*6A
$GLGSV,3,2,09,78,54,010,40,79,33,313,45,81,21,166,41,87,33,046,31*69
$GLGSV,3,3,09,88,50,112,24*5D
$GNGLL,3621.71473,N,12720.93347,E,030057.00,A,A*7A
$GNRMC,030058.00,A,3621.71474,N,12720.93351,E,0.034,,030518,,,A*64
$GNVTG,,T,,M,0.034,N,0.063,K,A*3F
$GNGGA,030058.00,3621.71474,N,12720.93351,E,1,12,0.73,69.5,M,20.0,M,,*7F
$GNGSA,A,3,23,26,31,16,21,27,29,14,,,,,1.40,0.73,1.20*16
$GNGSA,A,3,78,87,79,77,81,88,,,,,,,1.40,0.73,1.20*19
$GPGSV,4,1,14,03,06,257,19,04,,,38,08,00,208,,09,05,324,25*47
$GPGSV,4,2,14,14,30,171,30,16,62,288,39,21,18,100,26,22,01,236,*7A
$GPGSV,4,3,14,23,36,302,42,26,67,010,44,27,34,195,34,29,17,040,26*79
$GPGSV,4,4,14,31,51,096,34,32,04,162,*72
$GLGSV,3,1,09,67,03,199,,68,28,245,,69,27,232,,77,28,074,33*6A
$GLGSV,3,2,09,78,54,010,40,79,33,313,44,81,22,166,41,87,33,046,32*68
$GLGSV,3,3,09,88,50,112,25*5C
$GNGLL,3621.71474,N,12720.93351,E,030058.00,A,A*75
$GNRMC,030059.00,A,3621.71477,N,12720.93356,E,0.049,,030518,,,A*6B
$GNVTG,,T,,M,0.049,N,0.092,K,A*3B
$GNGGA,030059.00,3621.71477,N,12720.93356,E,1,12,0.73,69.4,M,20.0,M,,*7B
$GNGSA,A,3,23,26,31,16,21,27,29,14,,,,,1.40,0.73,1.20*16
$GNGSA,A,3,78,87,79,77,81,88,,,,,,,1.40,0.73,1.20*19
$GPGSV,4,1,14,03,06,257,19,04,,,38,08,00,208,,09,05,324,25*47
$GPGSV,4,2,14,14,30,171,29,16,62,288,39,21,18,100,26,22,01,236,*72
$GPGSV,4,3,14,23,36,302,42,26,67,010,43,27,34,195,35,29,17,040,27*7E
$GPGSV,4,4,14,31,51,096,34,32,04,162,*72
$GLGSV,3,1,09,67,03,199,,68,28,245,,69,27,232,,77,28,074,33*6A
$GLGSV,3,2,09,78,54,010,40,79,33,313,44,81,22,166,41,87,33,046,31*6B
$GLGSV,3,3,09,88,50,112,25*5C
$GNGLL,3621.71477,N,12720.93356,E,030059.00,A,A*70
$GNRMC,030100.00,A,3621.71480,N,12720.93362,E,0.084,,030518,,,A*68
$GNVTG,,T,,M,0.084,N,0.155,K,A*30
$GNGGA,030100.00,3621.71480,N,12720.93362,E,1,12,0.73,69.3,M,20.0,M,,*7E
$GNGSA,A,3,23,26,31,16,21,27,29,14,,,,,1.40,0.73,1.20*16
$GNGSA,A,3,78,87,79,77,81,88,,,,,,,1.40,0.73,1.20*19
$GPGSV,4,1,14,03,06,257,18,04,,,38,08,00,208,,09,05,324,25*46
$GPGSV,4,2,14,14,30,171,29,16,62,288,40,21,18,100,27,22,01,236,*7D
$GPGSV,4,3,14,23,36,302,42,26,67,010,44,27,34,195,34,29,17,040,26*79
$GPGSV,4,4,14,31,51,096,34,32,04,162,*72
$GLGSV,3,1,09,67,03,199,,68,28,245,,69,27,232,,77,28,074,33*6A
$GLGSV,3,2,09,78,54,010,40,79,33,313,44,81,22,166,41,87,33,046,31*6B
$GLGSV,3,3,09,88,50,112,26*5F
$GNGLL,3621.71480,N,12720.93362,E,030100.00,A,A*72
$GNRMC,030101.00,A,3621.71482,N,12720.93366,E,0.010,,030518,,,A*62
$GNVTG,,T,,M,0.010,N,0.019,K,A*34
$GNGGA,030101.00,3621.71482,N,12720.93366,E,1,12,0.73,69.3,M,20.0,M,,*79
$GNGSA,A,3,23,26,31,16,21,27,29,14,,,,,1.40,0.73,1.20*16
$GNGSA,A,3,78,87,79,77,81,88,,,,,,,1.40,0.73,1.20*19
$GPGSV,4,1,14,03,06,257,18,04,,,38,08,00,208,,09,05,324,26*45
$GPGSV,4,2,14,14,30,171,29,16,62,288,40,21,18,100,26,22,01,236,*7C
$GPGSV,4,3,14,23,36,302,42,26,67,010,43,27,34,195,34,29,17,040,26*7E
$GPGSV,4,4,14,31,51,096,34,32,04,162,*72
$GLGSV,3,1,09,67,03,199,,68,28,245,,69,27,232,,77,28,074,32*6B
$GLGSV,3,2,09,78,54,010,40,79,33,313,44,81,22,166,41,87,33,046,31*6B
$GLGSV,3,3,09,88,50,112,25*5C
$GNGLL,3621.71482,N,12720.93366,E,030101.00,A,A*75
$GNRMC,030102.00,A,3621.71483,N,12720.93369,E,0.010,,030518,,,A*6F
$GNVTG,,T,,M,0.010,N,0.019,K,A*34
$GNGGA,030102.00,3621.71483,N,12720.93369,E,1,12,0.73,69.3,M,20.0,M,,*74
$GNGSA,A,3,23,26,31,16,21,27,29,14,,,,,1.40,0.73,1.20*16
$GNGSA,A,3,78,87,79,77,81,88,,,,,,,1.40,0.73,1.20*19
$GPGSV,4,1,14,03,06,257,19,04,,,38,08,00,208,,09,05,324,26*44
$GPGSV,4,2,14,14,30,171,29,16,62,288,40,21,18,100,27,22,01,236,*7D
$GPGSV,4,3,14,23,36,302,43,26,67,010,44,27,34,195,34,29,17,040,26*78
$GPGSV,4,4,14,31,51,096,34,32,04,162,*72
$GLGSV,3,1,09,67,03,199,,68,28,245,,69,27,232,,77,28,074,32*6B
$GLGSV,3,2,09,78,54,010,41,79,33,313,44,81,22,166,41,87,33,046,32*69
$GLGSV,3,3,09,88,50,112,26*5F
$GNGLL,3621.71483,N,12720.93369,E,030102.00,A,A*78
$GNRMC,030103.00,A,3621.71485,N,12720.93373,E,0.030,,030518,,,A*61
$GNVTG,,T,,M,0.030,N,0.056,K,A*3D
$GNGGA,030103.00,3621.71485,N,12720.93373,E,1,12,0.73,69.3,M,20.0,M,,*78
$GNGSA,A,3,23,26,31,16,21,27,29,14,,,,,1.40,0.73,1.20*16
$GNGSA,A,3,78,87,79,77,81,88,,,,,,,1.40,0.73,1.20*19
$GPGSV,4,1,14,03,06,257,18,04,,,37,08,00,208,,09,05,324,26*4A
$GPGSV,4,2,14,14,30,171,29,16,62,288,40,21,18,100,26,22,01,236,*7C
$GPGSV,4,3,14,23,36,302,42,26,67,010,43,27,34,195,34,29,17,040,26*7E
$GPGSV,4,4,14,31,51,096,34,32,04,162,*72
$GLGSV,3,1,09,67,03,199,,68,28,245,,69,27,232,,77,28,074,31*68
$GLGSV,3,2,09,78,54,010,41,79,33,313,44,81,22,166,40,87,33,046,32*68
$GLGSV,3,3,09,88,50,112,26*5F
$GNGLL,3621.71485,N,12720.93373,E,030103.00,A,A*74
$GNRMC,030104.00,A,3621.71487,N,12720.93377,E,0.021,,030518,,,A*60
$GNVTG,,T,,M,0.021,N,0.039,K,A*34
$GNGGA,030104.00,3621.71487,N,12720.93377,E,1,12,0.73,69.2,M,20.0,M,,*78
$GNGSA,A,3,23,26,31,16,21,27,29,14,,,,,1.40,0.73,1.20*16
$GNGSA,A,3,78,87,79,77,81,88,,,,,,,1.40,0.73,1.20*19
$GPGSV,4,1,14,03,06,257,19,04,,,37,08,00,208,,09,05,324,25*48
$GPGSV,4,2,14,14,30,171,29,16,62,288,39,21,18,100,26,22,01,236,*72
$GPGSV,4,3,14,23,36,302,42,26,67,010,43,27,34,195,33,29,17,040,25*7A
$GPGSV,4,4,14,31,51,096,34,32,04,162,*72
$GLGSV,3,1,09,67,03,199,,68,28,245,,69,27,232,,77,28,074,31*68
$GLGSV,3,2,09,78,54,010,40,79,33,313,44,81,22,166,41,87,33,045,32*6B
$GLGSV,3,3,09,88,50,112,27*5E
$GNGLL,3621.71487,N,12720.93377,E,030104.00,A,A*75
$GNRMC,030105.00,A,3621.71489,N,12720.93380,E,0.021,,030518,,,A*67
$GNVTG,,T,,M,0.021,N,0.040,K,A*3A
$GNGGA,030105.00,3621.71489,N,12720.93380,E,1,12,0.73,69.2,M,20.0,M,,*7F
$GNGSA,A,3,23,26,31,16,21,27,29,14,,,,,1.40,0.73,1.20*16
$GNGSA,A,3,78,87,79,77,81,88,,,,,,,1.40,0.73,1.20*19
$GPGSV,4,1,14,03,06,257,20,04,,,37,08,00,208,,09,05,324,25*42
$GPGSV,4,2,14,14,30,171,29,16,62,288,39,21,18,100,26,22,01,236,*72
$GPGSV,4,3,14,23,36,302,42,26,67,010,43,27,34,195,34,29,17,040,26*7E
$GPGSV,4,4,14,31,51,096,33,32,04,162,*75
$GLGSV,3,1,09,67,03,199,,68,28,245,,69,27,232,,77,28,074,31*68
$GLGSV,3,2,09,78,54,010,41,79,33,313,44,81,22,166,40,87,33,045,32*6B
$GLGSV,3,3,09,88,50,111,26*5C
$GNGLL,3621.71489,N,12720.93380,E,030105.00,A,A*72
$GNRMC,030106.00,A,3621.71490,N,12720.93384,E,0.041,,030518,,,A*6E
$GNVTG,,T,,M,0.041,N,0.077,K,A*38
$GNGGA,030106.00,3621.71490,N,12720.93384,E,1,12,0.74,69.2,M,20.0,M,,*77
$GNGSA,A,3,23,26,31,16,21,27,29,14,,,,,1.48,0.74,1.29*10
$GNGSA,A,3,78,87,79,77,81,88,,,,,,,1.48,0.74,1.29*1F
$GPGSV,4,1,14,03,06,257,20,04,,,37,08,00,208,,09,05,324,25*42
$GPGSV,4,2,14,14,30,171,29,16,62,288,39,21,18,100,26,22,01,236,*72
$GPGSV,4,3,14,23,36,302,42,26,67,010,43,27,34,195,34,29,17,040,25*7D
$GPGSV,4,4,14,31,51,096,33,32,04,162,*75
$GLGSV,3,1,09,67,03,199,,68,28,245,,69,27,232,,77,28,074,31*68
$GLGSV,3,2,09,78,54,010,40,79,33,313,44,81,22,166,40,87,33,045,32*6A
$GLGSV,3,3,09,88,50,111,26*5C
$GNGLL,3621.71490,N,12720.93384,E,030106.00,A,A*7D
$GNRMC,030107.00,A,3621.71490,N,12720.93387,E,0.023,,030518,,,A*68
$GNVTG,,T,,M,0.023,N,0.043,K,A*3B
$GNGGA,030107.00,3621.71490,N,12720.93387,E,1,12,0.74,69.2,M,20.0,M,,*75
$GNGSA,A,3,23,26,31,16,21,27,29,14,,,,,1.48,0.74,1.29*10
$GNGSA,A,3,78,87,79,77,81,88,,,,,,,1.48,0.74,1.29*1F
$GPGSV,4,1,14,03,06,257,20,04,,,37,08,00,208,,09,05,324,24*43
$GPGSV,4,2,14,14,30,171,28,16,62,288,40,21,18,100,27,22,01,236,*7C
$GPGSV,4,3,14,23,36,302,42,26,67,010,43,27,34,195,34,29,17,040,25*7D
$GPGSV,4,4,14,31,51,096,33,32,04,162,*75
$GLGSV,3,1,09,67,03,199,,68,28,245,,69,27,232,,77,28,074,30*69
$GLGSV,3,2,09,78,54,010,40,79,33,313,44,81,22,166,41,87,33,045,32*6B
$GLGSV,3,3,09,88,50,111,25*5F
$GNGLL,3621.71490,N,12720.93387,E,030107.00,A,A*7F
$GNRMC,030108.00,A,3621.71490,N,12720.93388,E,0.001,,030518,,,A*68
$GNVTG,,T,,M,0.001,N,0.001,K,A*3D
$GNGGA,030108.00,3621.71490,N,12720.93388,E,1,12,0.74,69.2,M,20.0,M,,*75
$GNGSA,A,3,23,26,31,16,21,27,29,14,,,,,1.48,0.74,1.29*10
$GNGSA,A,3,78,87,79,77,81,88,,,,,,,1.48,0.74,1.29*1F
$GPGSV,4,1,14,03,06,257,20,04,,,37,08,00,208,,09,05,324,24*43
$GPGSV,4,2,14,14,30,171,28,16,62,288,40,21,18,100,26,22,01,236,*7D
$GPGSV,4,3,14,23,36,302,42,26,67,010,43,27,34,195,34,29,17,040,25*7D
$GPGSV,4,4,14,31,51,096,33,32,04,162,*75
$GLGSV,3,1,09,67,03,199,,68,28,245,,69,27,232,,77,28,074,30*69
$GLGSV,3,2,09,78,54,010,41,79,33,313,44,81,22,166,40,87,33,045,32*6B
$GLGSV,3,3,09,88,50,111,25*5F
$GNGLL,3621.71490,N,12720.93388,E,030108.00,A,A*7F
$GNRMC,030109.00,A,3621.71490,N,12720.93390,E,0.016,,030518,,,A*66
$GNVTG,,T,,M,0.016,N,0.029,K,A*31
$GNGGA,030109.00,3621.71490,N,12720.93390,E,1,12,0.73,69.3,M,20.0,M,,*7B
$GNGSA,A,3,23,26,31,16,21,27,29,14,,,,,1.40,0.73,1.20*16
$GNGSA,A,3,78,87,79,77,81,88,,,,,,,1.40,0.73,1.20*19
$GPGSV,4,1,14,03,06,257,21,04,,,37,08,00,208,,09,05,324,24*42
$GPGSV,4,2,14,14,30,171,28,16,62,288,40,21,18,100,26,22,01,236,*7D
$GPGSV,4,3,14,23,36,302,42,26,67,010,43,27,34,195,34,29,17,040,25*7D
$GPGSV,4,4,14,31,51,096,33,32,04,162,*75
$GLGSV,3,1,09,67,03,199,,68,28,245,,69,27,232,,77,28,074,30*69
$GLGSV,3,2,09,78,54,010,40,79,33,313,44,81,22,166,40,87,33,045,32*6A
$GLGSV,3,3,09,88,50,111,25*5F
$GNGLL,3621.71490,N,12720.93390,E,030109.00,A,A*77
$GNRMC,030110.00,A,3621.71490,N,12720.93392,E,0.015,,030518,,,A*6F
$GNVTG,,T,,M,0.015,N,0.027,K,A*3C
$GNGGA,030110.00,3621.71490,N,12720.93392,E,1,12,0.73,69.3,M,20.0,M,,*71
$GNGSA,A,3,23,26,31,16,21,27,29,14,,,,,1.40,0.73,1.20*16
$GNGSA,A,3,78,87,79,77,81,88,,,,,,,1.40,0.73,1.20*19
$GPGSV,4,1,14,03,06,257,21,04,,,37,08,00,208,,09,05,324,23*45
$GPGSV,4,2,14,14,30,171,28,16,62,288,40,21,18,100,26,22,01,236,*7D
$GPGSV,4,3,14,23,36,302,42,26,67,010,43,27,34,195,34,29,17,040,25*7D
$GPGSV,4,4,14,31,51,096,33,32,04,162,*75
$GLGSV,3,1,09,67,03,199,,68,28,245,,69,27,232,,77,28,074,30*69
$GLGSV,3,2,09,78,54,010,40,79,33,313,44,81,22,166,40,87,33,045,32*6A
$GLGSV,3,3,09,88,50,111,25*5F
$GNGLL,3621.71490,N,12720.93392,E,030110.00,A,A*7D
$GNRMC,030111.00,A,3621.71491,N,12720.93393,E,0.009,,030518,,,A*63
$GNVTG,,T,,M,0.009,N,0.017,K,A*32
$GNGGA,030111.00,3621.71491,N,12720.93393,E,1,12,0.73,69.4,M,20.0,M,,*77
$GNGSA,A,3,23,26,31,16,21,27,29,14,,,,,1.40,0.73,1.20*16
$GNGSA,A,3,78,87,79,77,81,88,,,,,,,1.40,0.73,1.20*19
$GPGSV,4,1,14,03,06,257,22,04,,,37,08,00,208,,09,05,324,22*47
$GPGSV,4,2,14,14,30,171,28,16,62,288,40,21,18,100,26,22,01,236,*7D
$GPGSV,4,3,14,23,36,302,42,26,67,010,43,27,34,195,34,29,17,040,25*7D
$GPGSV,4,4,14,31,51,096,33,32,04,162,*75
$GLGSV,3,1,09,67,03,199,,68,28,245,,69,27,232,,77,28,074,29*61
$GLGSV,3,2,09,78,54,010,40,79,33,313,44,81,22,166,40,87,33,045,32*6A
$GLGSV,3,3,09,88,50,111,26*5C
$GNGLL,3621.71491,N,12720.93393,E,030111.00,A,A*7C
$GNRMC,030112.00,A,3621.71492,N,12720.93396,E,0.087,,030518,,,A*60
$GNVTG,,T,,M,0.087,N,0.162,K,A*37
$GNGGA,030112.00,3621.71492,N,12720.93396,E,1,12,0.73,69.4,M,20.0,M,,*72
$GNGSA,A,3,23,26,31,16,21,27,29,14,,,,,1.40,0.73,1.20*16
$GNGSA,A,3,78,87,79,77,81,88,,,,,,,1.40,0.73,1.20*19
$GPGSV,4,1,14,03,06,257,23,04,,,37,08,00,208,,09,05,324,22*46
$GPGSV,4,2,14,14,30,171,28,16,62,288,40,21,18,100,26,22,01,236,*7D
$GPGSV,4,3,14,23,36,302,42,26,67,010,43,27,34,195,34,29,17,040,25*7D
$GPGSV,4,4,14,31,51,096,33,32,04,162,*75
$GLGSV,3,1,09,67,03,199,,68,28,245,,69,27,232,,77,28,074,30*69
$GLGSV,3,2,09,78,54,010,40,79,33,313,44,81,22,166,40,87,33,045,32*6A
$GLGSV,3,3,09,88,50,111,25*5F
$GNGLL,3621.71492,N,12720.93396,E,030112.00,A,A*79
$GNRMC,030113.00,A,3621.71494,N,12720.93399,E,0.008,,030518,,,A*6F
$GNVTG,,T,,M,0.008,N,0.015,K,A*31
$GNGGA,030113.00,3621.71494,N,12720.93399,E,1,12,0.73,69.4,M,20.0,M,,*7A
$GNGSA,A,3,23,26,31,16,21,27,29,14,,,,,1.40,0.73,1.20*16
$GNGSA,A,3,78,87,79,77,81,88,,,,,,,1.40,0.73,1.20*19
$GPGSV,4,1,14,03,06,257,22,04,,,37,08,00,208,,09,06,324,22*44
$GPGSV,4,2,14,14,30,171,28,16,62,288,40,21,18,100,26,22,01,236,*7D
$GPGSV,4,3,14,23,36,302,42,26,67,010,43,27,34,195,33,29,17,040,25*7A
$GPGSV,4,4,14,31,51,096,33,32,04,162,*75
$GLGSV,3,1,09,67,03,199,,68,28,245,,69,27,232,,77,28,074,30*69
$GLGSV,3,2,09,78,54,010,40,79,33,313,44,81,22,166,40,87,33,045,32*6A
$GLGSV,3,3,09,88,50,111,26*5C
$GNGLL,3621.71494,N,12720.93399,E,030113.00,A,A*71
$GNRMC,030114.00,A,3621.71495,N,12720.93404,E,0.095,,030518,,,A*6E
$GNVTG,,T,,M,0.095,N,0.176,K,A*31
$GNGGA,030114.00,3621.71495,N,12720.93404,E,1,12,0.73,69.4,M,20.0,M,,*7F
$GNGSA,A,3,23,26,31,16,21,27,29,14,,,,,1.40,0.73,1.20*16
$GNGSA,A,3,78,87,79,77,81,88,,,,,,,1.40,0.73,1.20*19
$GPGSV,4,1,14,03,06,257,22,04,,,37,08,00,208,,09,06,324,21*47
$GPGSV,4,2,14,14,30,171,28,16,62,288,39,21,18,100,26,22,01,236,*73
$GPGSV,4,3,14,23,36,302,42,26,67,010,43,27,34,195,34,29,17,040,25*7D
$GPGSV,4,4,14,31,51,096,33,32,04,162,*75
$GLGSV,3,1,09,67,03,199,,68,28,245,,69,27,232,,77,28,074,30*69
$GLGSV,3,2,09,78,54,010,40,79,33,313,44,81,22,166,41,87,33,045,32*6B
$GLGSV,3,3,09,88,50,111,25*5F
$GNGLL,3621.71495,N,12720.93404,E,030114.00,A,A*74
$GNRMC,030115.00,A,3621.71497,N,12720.93406,E,0.023,,030518,,,A*62
$GNVTG,,T,,M,0.023,N,0.043,K,A*3B
$GNGGA,030115.00,3621.71497,N,12720.93406,E,1,12,0.73,69.4,M,20.0,M,,*7E
$GNGSA,A,3,23,26,31,16,21,27,29,14,,,,,1.40,0.73,1.20*16
$GNGSA,A,3,78,87,79,77,81,88,,,,,,,1.40,0.73,1.20*19
$GPGSV,4,1,14,03,06,257,22,04,,,37,08,00,208,,09,06,324,21*47
$GPGSV,4,2,14,14,30,171,28,16,62,288,39,21,18,100,26,22,01,236,*73
$GPGSV,4,3,14,23,36,302,42,26,67,010,43,27,34,195,33,29,17,040,25*7A
$GPGSV,4,4,14,31,51,096,33,32,04,162,*75
$GLGSV,3,1,09,67,03,199,,68,28,245,,69,27,232,,77,28,074,30*69
$GLGSV,3,2,09,78,54,010,40,79,33,313,44,81,22,166,41,87,33,045,32*6B
$GLGSV,3,3,09,88,50,111,25*5F
$GNGLL,3621.71497,N,12720.93406,E,030115.00,A,A*75
$GNRMC,030116.00,A,3621.71501,N,12720.93409,E,0.055,,030518,,,A*61
$GNVTG,,T,,M,0.055,N,0.102,K,A*3E
$GNGGA,030116.00,3621.71501,N,12720.93409,E,1,12,0.73,69.3,M,20.0,M,,*7B
$GNGSA,A,3,23,26,31,16,21,27,29,14,,,,,1.40,0.73,1.20*16
$GNGSA,A,3,78,87,79,77,81,88,,,,,,,1.40,0.73,1.20*19
$GPGSV,4,1,14,03,06,257,22,04,,,37,08,00,208,,09,06,324,22*44
$GPGSV,4,2,14,14,30,171,28,16,62,288,39,21,18,100,26,22,01,236,*73
$GPGSV,4,3,14,23,36,302,42,26,67,010,43,27,34,195,33,29,17,040,25*7A
$GPGSV,4,4,14,31,51,096,34,32,04,162,*72
$GLGSV,3,1,09,67,03,199,,68,28,245,,69,27,232,,77,28,074,31*68
$GLGSV,3,2,09,78,54,010,40,79,33,313,44,81,22,166,41,87,33,045,32*6B
$GLGSV,3,3,09,88,50,111,25*5F
$GNGLL,3621.71501,N,12720.93409,E,030116.00,A,A*77
$GNRMC,030117.00,A,3621.71504,N,12720.93414,E,0.059,,030518,,,A*65
$GNVTG,,T,,M,0.059,N,0.109,K,A*39
$GNGGA,030117.00,3621.71504,N,12720.93414,E,1,12,0.73,69.2,M,20.0,M,,*72
$GNGSA,A,3,23,26,31,16,21,27,29,14,,,,,1.40,0.73,1.20*16
$GNGSA,A,3,78,87,79,77,81,88,,,,,,,1.40,0.73,1.20*19
$GPGSV,4,1,14,03,06,257,22,04,,,37,08,00,208,,09,06,324,22*44
$GPGSV,4,2,14,14,30,171,27,16,62,288,39,21,18,100,26,22,01,236,*7C
$GPGSV,4,3,14,23,36,302,42,26,67,010,43,27,34,195,33,29,17,040,25*7A
$GPGSV,4,4,14,31,51,096,34,32,04,162,*72
$GLGSV,3,1,09,67,03,199,,68,28,245,,69,27,232,,77,28,074,31*68
$GLGSV,3,2,09,78,54,010,40,79,33,313,44,81,22,166,41,87,33,045,32*6B
$GLGSV,3,3,09,88,50,111,25*5F
$GNGLL,3621.71504,N,12720.93414,E,030117.00,A,A*7F
$GNRMC,030118.00,A,3621.71507,N,12720.93416,E,0.053,,030518,,,A*61
$GNVTG,,T,,M,0.053,N,0.099,K,A*3B
$GNGGA,030118.00,3621.71507,N,12720.93416,E,1,12,0.73,69.1,M,20.0,M,,*7F
$GNGSA,A,3,23,26,31,16,21,27,29,14,,,,,1.40,0.73,1.20*16
$GNGSA,A,3,78,87,79,77,81,88,,,,,,,1.40,0.73,1.20*19
$GPGSV,4,1,14,03,06,257,22,04,,,37,08,00,208,,09,06,324,22*44
$GPGSV,4,2,14,14,30,171,27,16,62,288,39,21,18,100,25,22,01,236,*7F
$GPGSV,4,3,14,23,36,302,42,26,67,010,43,27,34,195,33,29,17,040,25*7A
$GPGSV,4,4,14,31,51,096,33,32,04,162,*75
$GLGSV,3,1,09,67,03,199,,68,28,245,,69,27,232,,77,28,074,31*68
$GLGSV,3,2,09,78,54,010,40,79,33,313,44,81,22,166,40,87,33,045,32*6A
$GLGSV,3,3,09,88,50,111,25*5F
$GNGLL,3621.71507,N,12720.93416,E,030118.00,A,A*71
$GNRMC,030119.00,A,3621.71510,N,12720.93419,E,0.043,,030518,,,A*68
$GNVTG,,T,,M,0.043,N,0.079,K,A*34
$GNGGA,030119.00,3621.71510,N,12720.93419,E,1,12,0.73,69.0,M,20.0,M,,*76
$GNGSA,A,3,23,26,31,16,21,27,29,14,,,,,1.40,0.73,1.20*16
$GNGSA,A,3,78,87,79,77,81,88,,,,,,,1.40,0.73,1.20*19
$GPGSV,4,1,14,03,06,257,23,04,,,37,08,00,208,,09,06,324,23*44
$GPGSV,4,2,14,14,30,171,27,16,62,288,39,21,18,100,25,22,01,236,*7F
$GPGSV,4,3,14,23,36,302,42,26,67,010,43,27,34,195,33,29,17,040,25*7A
$GPGSV,4,4,14,31,51,096,33,32,04,162,*75
$GLGSV,3,1,09,67,03,199,,68,28,245,,69,27,232,,77,28,074,32*6B
$GLGSV,3,2,09,78,54,010,40,79,33,313,44,81,22,166,41,87,33,045,32*6B
$GLGSV,3,3,09,88,50,111,25*5F
$GNGLL,3621.71510,N,12720.93419,E,030119.00,A,A*79
$GNRMC,030120.00,A,3621.71512,N,12720.93423,E,0.009,,030518,,,A*67
$GNVTG,,T,,M,0.009,N,0.017,K,A*32
$GNGGA,030120.00,3621.71512,N,12720.93423,E,1,12,0.73,68.9,M,20.0,M,,*7F
$GNGSA,A,3,23,26,31,16,21,27,29,14,,,,,1.40,0.73,1.20*16
$GNGSA,A,3,78,87,79,77,81,88,,,,,,,1.40,0.73,1.20*19
$GPGSV,4,1,14,03,06,257,22,04,,,37,08,00,208,,09,06,324,24*42
$GPGSV,4,2,14,14,30,171,28,16,62,289,39,21,18,100,25,22,01,236,*71
$GPGSV,4,3,14,23,36,302,42,26,67,010,43,27,34,195,33,29,17,040,25*7A
$GPGSV,4,4,14,31,51,096,33,32,04,162,*75
